[
  {
    "name": "New York #1",
    "lat": 40.7128,
    "lng": -74.006
  },
  {
    "name": "Los Angeles #2",
    "lat": 34.0522,
    "lng": -118.2437
  },
  {
    "name": "Chicago #3",
    "lat": 41.8781,
    "lng": -87.6298
  },
  {
    "name": "Houston #4",
    "lat": 29.7604,
    "lng": -95.3698
  },
  {
    "name": "Phoenix #5",
    "lat": 33.4484,
    "lng": -112.074
  },
  {
    "name": "Philadelphia #6",
    "lat": 39.9526,
    "lng": -75.1652
  },
  {
    "name": "San Antonio #7",
    "lat": 29.4241,
    "lng": -98.4936
  },
  {
    "name": "San Diego #8",
    "lat": 32.7157,
    "lng": -117.1611
  },
  {
    "name": "Dallas #9",
    "lat": 32.7767,
    "lng": -96.797
  },
  {
    "name": "San Jose #10",
    "lat": 37.3382,
    "lng": -121.8863
  },
  {
    "name": "Tokyo #11",
    "lat": 35.6762,
    "lng": 139.6503
  },
  {
    "name": "Delhi #12",
    "lat": 28.7041,
    "lng": 77.1025
  },
  {
    "name": "Shanghai #13",
    "lat": 31.2304,
    "lng": 121.4737
  },
  {
    "name": "S\u00e3o Paulo #14",
    "lat": -23.5505,
    "lng": -46.6333
  },
  {
    "name": "Mumbai #15",
    "lat": 19.076,
    "lng": 72.8777
  },
  {
    "name": "Beijing #16",
    "lat": 39.9042,
    "lng": 116.4074
  },
  {
    "name": "Cairo #17",
    "lat": 30.0444,
    "lng": 31.2357
  },
  {
    "name": "Dhaka #18",
    "lat": 23.8103,
    "lng": 90.4125
  },
  {
    "name": "Mexico City #19",
    "lat": 19.4326,
    "lng": -99.1332
  },
  {
    "name": "Osaka #20",
    "lat": 34.6937,
    "lng": 135.5023
  },
  {
    "name": "Karachi #21",
    "lat": 24.8607,
    "lng": 67.0011
  },
  {
    "name": "Buenos Aires #22",
    "lat": -34.6037,
    "lng": -58.3816
  },
  {
    "name": "Istanbul #23",
    "lat": 41.0082,
    "lng": 28.9784
  },
  {
    "name": "Kolkata #24",
    "lat": 22.5726,
    "lng": 88.3639
  },
  {
    "name": "Manila #25",
    "lat": 14.5995,
    "lng": 120.9842
  },
  {
    "name": "Lagos #26",
    "lat": 6.5244,
    "lng": 3.3792
  },
  {
    "name": "Rio de Janeiro #27",
    "lat": -22.9068,
    "lng": -43.1729
  },
  {
    "name": "Tianjin #28",
    "lat": 39.3434,
    "lng": 117.3616
  },
  {
    "name": "Kinshasa #29",
    "lat": -4.4419,
    "lng": 15.2663
  },
  {
    "name": "Paris #30",
    "lat": 48.8566,
    "lng": 2.3522
  },
  {
    "name": "Lima #31",
    "lat": -12.0464,
    "lng": -77.0428
  },
  {
    "name": "Bangkok #32",
    "lat": 13.7563,
    "lng": 100.5018
  },
  {
    "name": "London #33",
    "lat": 51.5074,
    "lng": -0.1278
  },
  {
    "name": "Bangalore #34",
    "lat": 12.9716,
    "lng": 77.5946
  },
  {
    "name": "Bogot\u00e1 #35",
    "lat": 4.711,
    "lng": -74.0721
  },
  {
    "name": "Ho Chi Minh City #36",
    "lat": 10.8231,
    "lng": 106.6297
  },
  {
    "name": "Hyderabad #37",
    "lat": 17.385,
    "lng": 78.4867
  },
  {
    "name": "Johannesburg #38",
    "lat": -26.2041,
    "lng": 28.0473
  },
  {
    "name": "Berlin #39",
    "lat": 52.52,
    "lng": 13.405
  },
  {
    "name": "Madrid #40",
    "lat": 40.4168,
    "lng": -3.7038
  },
  {
    "name": "Singapore #41",
    "lat": 1.3521,
    "lng": 103.8198
  },
  {
    "name": "Rome #42",
    "lat": 41.9028,
    "lng": 12.4964
  },
  {
    "name": "Toronto #43",
    "lat": 43.6532,
    "lng": -79.3832
  },
  {
    "name": "Chicago #44",
    "lat": 41.8781,
    "lng": -87.6298
  },
  {
    "name": "Boston #45",
    "lat": 42.3601,
    "lng": -71.0589
  },
  {
    "name": "Sydney #46",
    "lat": -33.8688,
    "lng": 151.2093
  },
  {
    "name": "Melbourne #47",
    "lat": -37.8136,
    "lng": 144.9631
  },
  {
    "name": "Barcelona #48",
    "lat": 41.3851,
    "lng": 2.1734
  },
  {
    "name": "Montreal #49",
    "lat": 45.5017,
    "lng": -73.5673
  },
  {
    "name": "San Francisco #50",
    "lat": 37.7749,
    "lng": -122.4194
  },
  {
    "name": "New York #51 #51",
    "lat": 40.7128,
    "lng": -74.006
  },
  {
    "name": "New York #52 #52",
    "lat": 40.7128,
    "lng": -74.006
  },
  {
    "name": "New York #53 #53",
    "lat": 40.7128,
    "lng": -74.006
  },
  {
    "name": "New York #54 #54",
    "lat": 40.7128,
    "lng": -74.006
  },
  {
    "name": "New York #55 #55",
    "lat": 40.7128,
    "lng": -74.006
  },
  {
    "name": "New York #56 #56",
    "lat": 40.7128,
    "lng": -74.006
  },
  {
    "name": "New York #57 #57",
    "lat": 40.7128,
    "lng": -74.006
  },
  {
    "name": "New York #58 #58",
    "lat": 40.7128,
    "lng": -74.006
  },
  {
    "name": "New York #59 #59",
    "lat": 40.7128,
    "lng": -74.006
  },
  {
    "name": "New York #60 #60",
    "lat": 40.7128,
    "lng": -74.006
  },
  {
    "name": "New York #61 #61",
    "lat": 40.7128,
    "lng": -74.006
  },
  {
    "name": "New York #62 #62",
    "lat": 40.7128,
    "lng": -74.006
  },
  {
    "name": "New York #63 #63",
    "lat": 40.7128,
    "lng": -74.006
  },
  {
    "name": "New York #64 #64",
    "lat": 40.7128,
    "lng": -74.006
  },
  {
    "name": "New York #65 #65",
    "lat": 40.7128,
    "lng": -74.006
  },
  {
    "name": "New York #66 #66",
    "lat": 40.7128,
    "lng": -74.006
  },
  {
    "name": "New York #67 #67",
    "lat": 40.7128,
    "lng": -74.006
  },
  {
    "name": "New York #68 #68",
    "lat": 40.7128,
    "lng": -74.006
  },
  {
    "name": "New York #69 #69",
    "lat": 40.7128,
    "lng": -74.006
  },
  {
    "name": "New York #70 #70",
    "lat": 40.7128,
    "lng": -74.006
  },
  {
    "name": "New York #71 #71",
    "lat": 40.7128,
    "lng": -74.006
  },
  {
    "name": "New York #72 #72",
    "lat": 40.7128,
    "lng": -74.006
  },
  {
    "name": "New York #73 #73",
    "lat": 40.7128,
    "lng": -74.006
  },
  {
    "name": "New York #74 #74",
    "lat": 40.7128,
    "lng": -74.006
  },
  {
    "name": "New York #75 #75",
    "lat": 40.7128,
    "lng": -74.006
  },
  {
    "name": "New York #76 #76",
    "lat": 40.7128,
    "lng": -74.006
  },
  {
    "name": "New York #77 #77",
    "lat": 40.7128,
    "lng": -74.006
  },
  {
    "name": "New York #78 #78",
    "lat": 40.7128,
    "lng": -74.006
  },
  {
    "name": "New York #79 #79",
    "lat": 40.7128,
    "lng": -74.006
  },
  {
    "name": "New York #80 #80",
    "lat": 40.7128,
    "lng": -74.006
  },
  {
    "name": "New York #81 #81",
    "lat": 40.7128,
    "lng": -74.006
  },
  {
    "name": "New York #82 #82",
    "lat": 40.7128,
    "lng": -74.006
  },
  {
    "name": "New York #83 #83",
    "lat": 40.7128,
    "lng": -74.006
  },
  {
    "name": "New York #84 #84",
    "lat": 40.7128,
    "lng": -74.006
  },
  {
    "name": "New York #85 #85",
    "lat": 40.7128,
    "lng": -74.006
  },
  {
    "name": "New York #86 #86",
    "lat": 40.7128,
    "lng": -74.006
  },
  {
    "name": "New York #87 #87",
    "lat": 40.7128,
    "lng": -74.006
  },
  {
    "name": "New York #88 #88",
    "lat": 40.7128,
    "lng": -74.006
  },
  {
    "name": "New York #89 #89",
    "lat": 40.7128,
    "lng": -74.006
  },
  {
    "name": "New York #90 #90",
    "lat": 40.7128,
    "lng": -74.006
  },
  {
    "name": "New York #91 #91",
    "lat": 40.7128,
    "lng": -74.006
  },
  {
    "name": "New York #92 #92",
    "lat": 40.7128,
    "lng": -74.006
  },
  {
    "name": "New York #93 #93",
    "lat": 40.7128,
    "lng": -74.006
  },
  {
    "name": "New York #94 #94",
    "lat": 40.7128,
    "lng": -74.006
  },
  {
    "name": "New York #95 #95",
    "lat": 40.7128,
    "lng": -74.006
  },
  {
    "name": "New York #96 #96",
    "lat": 40.7128,
    "lng": -74.006
  },
  {
    "name": "New York #97 #97",
    "lat": 40.7128,
    "lng": -74.006
  },
  {
    "name": "New York #98 #98",
    "lat": 40.7128,
    "lng": -74.006
  },
  {
    "name": "New York #99 #99",
    "lat": 40.7128,
    "lng": -74.006
  },
  {
    "name": "New York #100 #100",
    "lat": 40.7128,
    "lng": -74.006
  },
  {
    "name": "New York #101",
    "lat": 40.7128,
    "lng": -74.006
  },
  {
    "name": "Los Angeles #102",
    "lat": 34.0522,
    "lng": -118.2437
  },
  {
    "name": "Chicago #103",
    "lat": 41.8781,
    "lng": -87.6298
  },
  {
    "name": "Houston #104",
    "lat": 29.7604,
    "lng": -95.3698
  },
  {
    "name": "Phoenix #105",
    "lat": 33.4484,
    "lng": -112.074
  },
  {
    "name": "Philadelphia #106",
    "lat": 39.9526,
    "lng": -75.1652
  },
  {
    "name": "San Antonio #107",
    "lat": 29.4241,
    "lng": -98.4936
  },
  {
    "name": "San Diego #108",
    "lat": 32.7157,
    "lng": -117.1611
  },
  {
    "name": "Dallas #109",
    "lat": 32.7767,
    "lng": -96.797
  },
  {
    "name": "San Jose #110",
    "lat": 37.3382,
    "lng": -121.8863
  },
  {
    "name": "Tokyo #111",
    "lat": 35.6762,
    "lng": 139.6503
  },
  {
    "name": "Delhi #112",
    "lat": 28.7041,
    "lng": 77.1025
  },
  {
    "name": "Shanghai #113",
    "lat": 31.2304,
    "lng": 121.4737
  },
  {
    "name": "S\u00e3o Paulo #114",
    "lat": -23.5505,
    "lng": -46.6333
  },
  {
    "name": "Mumbai #115",
    "lat": 19.076,
    "lng": 72.8777
  },
  {
    "name": "Beijing #116",
    "lat": 39.9042,
    "lng": 116.4074
  },
  {
    "name": "Cairo #117",
    "lat": 30.0444,
    "lng": 31.2357
  },
  {
    "name": "Dhaka #118",
    "lat": 23.8103,
    "lng": 90.4125
  },
  {
    "name": "Mexico City #119",
    "lat": 19.4326,
    "lng": -99.1332
  },
  {
    "name": "Osaka #120",
    "lat": 34.6937,
    "lng": 135.5023
  },
  {
    "name": "Karachi #121",
    "lat": 24.8607,
    "lng": 67.0011
  },
  {
    "name": "Buenos Aires #122",
    "lat": -34.6037,
    "lng": -58.3816
  },
  {
    "name": "Istanbul #123",
    "lat": 41.0082,
    "lng": 28.9784
  },
  {
    "name": "Kolkata #124",
    "lat": 22.5726,
    "lng": 88.3639
  },
  {
    "name": "Manila #125",
    "lat": 14.5995,
    "lng": 120.9842
  },
  {
    "name": "Lagos #126",
    "lat": 6.5244,
    "lng": 3.3792
  },
  {
    "name": "Rio de Janeiro #127",
    "lat": -22.9068,
    "lng": -43.1729
  },
  {
    "name": "Tianjin #128",
    "lat": 39.3434,
    "lng": 117.3616
  },
  {
    "name": "Kinshasa #129",
    "lat": -4.4419,
    "lng": 15.2663
  },
  {
    "name": "Paris #130",
    "lat": 48.8566,
    "lng": 2.3522
  },
  {
    "name": "Lima #131",
    "lat": -12.0464,
    "lng": -77.0428
  },
  {
    "name": "Bangkok #132",
    "lat": 13.7563,
    "lng": 100.5018
  },
  {
    "name": "London #133",
    "lat": 51.5074,
    "lng": -0.1278
  },
  {
    "name": "Bangalore #134",
    "lat": 12.9716,
    "lng": 77.5946
  },
  {
    "name": "Bogot\u00e1 #135",
    "lat": 4.711,
    "lng": -74.0721
  },
  {
    "name": "Ho Chi Minh City #136",
    "lat": 10.8231,
    "lng": 106.6297
  },
  {
    "name": "Hyderabad #137",
    "lat": 17.385,
    "lng": 78.4867
  },
  {
    "name": "Johannesburg #138",
    "lat": -26.2041,
    "lng": 28.0473
  },
  {
    "name": "Berlin #139",
    "lat": 52.52,
    "lng": 13.405
  },
  {
    "name": "Madrid #140",
    "lat": 40.4168,
    "lng": -3.7038
  },
  {
    "name": "Singapore #141",
    "lat": 1.3521,
    "lng": 103.8198
  },
  {
    "name": "Rome #142",
    "lat": 41.9028,
    "lng": 12.4964
  },
  {
    "name": "Toronto #143",
    "lat": 43.6532,
    "lng": -79.3832
  },
  {
    "name": "Chicago #144",
    "lat": 41.8781,
    "lng": -87.6298
  },
  {
    "name": "Boston #145",
    "lat": 42.3601,
    "lng": -71.0589
  },
  {
    "name": "Sydney #146",
    "lat": -33.8688,
    "lng": 151.2093
  },
  {
    "name": "Melbourne #147",
    "lat": -37.8136,
    "lng": 144.9631
  },
  {
    "name": "Barcelona #148",
    "lat": 41.3851,
    "lng": 2.1734
  },
  {
    "name": "Montreal #149",
    "lat": 45.5017,
    "lng": -73.5673
  },
  {
    "name": "San Francisco #150",
    "lat": 37.7749,
    "lng": -122.4194
  },
  {
    "name": "New York #51 #151",
    "lat": 40.7128,
    "lng": -74.006
  },
  {
    "name": "New York #52 #152",
    "lat": 40.7128,
    "lng": -74.006
  },
  {
    "name": "New York #53 #153",
    "lat": 40.7128,
    "lng": -74.006
  },
  {
    "name": "New York #54 #154",
    "lat": 40.7128,
    "lng": -74.006
  },
  {
    "name": "New York #55 #155",
    "lat": 40.7128,
    "lng": -74.006
  },
  {
    "name": "New York #56 #156",
    "lat": 40.7128,
    "lng": -74.006
  },
  {
    "name": "New York #57 #157",
    "lat": 40.7128,
    "lng": -74.006
  },
  {
    "name": "New York #58 #158",
    "lat": 40.7128,
    "lng": -74.006
  },
  {
    "name": "New York #59 #159",
    "lat": 40.7128,
    "lng": -74.006
  },
  {
    "name": "New York #60 #160",
    "lat": 40.7128,
    "lng": -74.006
  },
  {
    "name": "New York #61 #161",
    "lat": 40.7128,
    "lng": -74.006
  },
  {
    "name": "New York #62 #162",
    "lat": 40.7128,
    "lng": -74.006
  },
  {
    "name": "New York #63 #163",
    "lat": 40.7128,
    "lng": -74.006
  },
  {
    "name": "New York #64 #164",
    "lat": 40.7128,
    "lng": -74.006
  },
  {
    "name": "New York #65 #165",
    "lat": 40.7128,
    "lng": -74.006
  },
  {
    "name": "New York #66 #166",
    "lat": 40.7128,
    "lng": -74.006
  },
  {
    "name": "New York #67 #167",
    "lat": 40.7128,
    "lng": -74.006
  },
  {
    "name": "New York #68 #168",
    "lat": 40.7128,
    "lng": -74.006
  },
  {
    "name": "New York #69 #169",
    "lat": 40.7128,
    "lng": -74.006
  },
  {
    "name": "New York #70 #170",
    "lat": 40.7128,
    "lng": -74.006
  },
  {
    "name": "New York #71 #171",
    "lat": 40.7128,
    "lng": -74.006
  },
  {
    "name": "New York #72 #172",
    "lat": 40.7128,
    "lng": -74.006
  },
  {
    "name": "New York #73 #173",
    "lat": 40.7128,
    "lng": -74.006
  },
  {
    "name": "New York #74 #174",
    "lat": 40.7128,
    "lng": -74.006
  },
  {
    "name": "New York #75 #175",
    "lat": 40.7128,
    "lng": -74.006
  },
  {
    "name": "New York #76 #176",
    "lat": 40.7128,
    "lng": -74.006
  },
  {
    "name": "New York #77 #177",
    "lat": 40.7128,
    "lng": -74.006
  },
  {
    "name": "New York #78 #178",
    "lat": 40.7128,
    "lng": -74.006
  },
  {
    "name": "New York #79 #179",
    "lat": 40.7128,
    "lng": -74.006
  },
  {
    "name": "New York #80 #180",
    "lat": 40.7128,
    "lng": -74.006
  },
  {
    "name": "New York #81 #181",
    "lat": 40.7128,
    "lng": -74.006
  },
  {
    "name": "New York #82 #182",
    "lat": 40.7128,
    "lng": -74.006
  },
  {
    "name": "New York #83 #183",
    "lat": 40.7128,
    "lng": -74.006
  },
  {
    "name": "New York #84 #184",
    "lat": 40.7128,
    "lng": -74.006
  },
  {
    "name": "New York #85 #185",
    "lat": 40.7128,
    "lng": -74.006
  },
  {
    "name": "New York #86 #186",
    "lat": 40.7128,
    "lng": -74.006
  },
  {
    "name": "New York #87 #187",
    "lat": 40.7128,
    "lng": -74.006
  },
  {
    "name": "New York #88 #188",
    "lat": 40.7128,
    "lng": -74.006
  },
  {
    "name": "New York #89 #189",
    "lat": 40.7128,
    "lng": -74.006
  },
  {
    "name": "New York #90 #190",
    "lat": 40.7128,
    "lng": -74.006
  },
  {
    "name": "New York #91 #191",
    "lat": 40.7128,
    "lng": -74.006
  },
  {
    "name": "New York #92 #192",
    "lat": 40.7128,
    "lng": -74.006
  },
  {
    "name": "New York #93 #193",
    "lat": 40.7128,
    "lng": -74.006
  },
  {
    "name": "New York #94 #194",
    "lat": 40.7128,
    "lng": -74.006
  },
  {
    "name": "New York #95 #195",
    "lat": 40.7128,
    "lng": -74.006
  },
  {
    "name": "New York #96 #196",
    "lat": 40.7128,
    "lng": -74.006
  },
  {
    "name": "New York #97 #197",
    "lat": 40.7128,
    "lng": -74.006
  },
  {
    "name": "New York #98 #198",
    "lat": 40.7128,
    "lng": -74.006
  },
  {
    "name": "New York #99 #199",
    "lat": 40.7128,
    "lng": -74.006
  },
  {
    "name": "New York #100 #200",
    "lat": 40.7128,
    "lng": -74.006
  },
  {
    "name": "New York #201",
    "lat": 40.7128,
    "lng": -74.006
  },
  {
    "name": "Los Angeles #202",
    "lat": 34.0522,
    "lng": -118.2437
  },
  {
    "name": "Chicago #203",
    "lat": 41.8781,
    "lng": -87.6298
  },
  {
    "name": "Houston #204",
    "lat": 29.7604,
    "lng": -95.3698
  },
  {
    "name": "Phoenix #205",
    "lat": 33.4484,
    "lng": -112.074
  },
  {
    "name": "Philadelphia #206",
    "lat": 39.9526,
    "lng": -75.1652
  },
  {
    "name": "San Antonio #207",
    "lat": 29.4241,
    "lng": -98.4936
  },
  {
    "name": "San Diego #208",
    "lat": 32.7157,
    "lng": -117.1611
  },
  {
    "name": "Dallas #209",
    "lat": 32.7767,
    "lng": -96.797
  },
  {
    "name": "San Jose #210",
    "lat": 37.3382,
    "lng": -121.8863
  },
  {
    "name": "Tokyo #211",
    "lat": 35.6762,
    "lng": 139.6503
  },
  {
    "name": "Delhi #212",
    "lat": 28.7041,
    "lng": 77.1025
  },
  {
    "name": "Shanghai #213",
    "lat": 31.2304,
    "lng": 121.4737
  },
  {
    "name": "S\u00e3o Paulo #214",
    "lat": -23.5505,
    "lng": -46.6333
  },
  {
    "name": "Mumbai #215",
    "lat": 19.076,
    "lng": 72.8777
  },
  {
    "name": "Beijing #216",
    "lat": 39.9042,
    "lng": 116.4074
  },
  {
    "name": "Cairo #217",
    "lat": 30.0444,
    "lng": 31.2357
  },
  {
    "name": "Dhaka #218",
    "lat": 23.8103,
    "lng": 90.4125
  },
  {
    "name": "Mexico City #219",
    "lat": 19.4326,
    "lng": -99.1332
  },
  {
    "name": "Osaka #220",
    "lat": 34.6937,
    "lng": 135.5023
  },
  {
    "name": "Karachi #221",
    "lat": 24.8607,
    "lng": 67.0011
  },
  {
    "name": "Buenos Aires #222",
    "lat": -34.6037,
    "lng": -58.3816
  },
  {
    "name": "Istanbul #223",
    "lat": 41.0082,
    "lng": 28.9784
  },
  {
    "name": "Kolkata #224",
    "lat": 22.5726,
    "lng": 88.3639
  },
  {
    "name": "Manila #225",
    "lat": 14.5995,
    "lng": 120.9842
  },
  {
    "name": "Lagos #226",
    "lat": 6.5244,
    "lng": 3.3792
  },
  {
    "name": "Rio de Janeiro #227",
    "lat": -22.9068,
    "lng": -43.1729
  },
  {
    "name": "Tianjin #228",
    "lat": 39.3434,
    "lng": 117.3616
  },
  {
    "name": "Kinshasa #229",
    "lat": -4.4419,
    "lng": 15.2663
  },
  {
    "name": "Paris #230",
    "lat": 48.8566,
    "lng": 2.3522
  },
  {
    "name": "Lima #231",
    "lat": -12.0464,
    "lng": -77.0428
  },
  {
    "name": "Bangkok #232",
    "lat": 13.7563,
    "lng": 100.5018
  },
  {
    "name": "London #233",
    "lat": 51.5074,
    "lng": -0.1278
  },
  {
    "name": "Bangalore #234",
    "lat": 12.9716,
    "lng": 77.5946
  },
  {
    "name": "Bogot\u00e1 #235",
    "lat": 4.711,
    "lng": -74.0721
  },
  {
    "name": "Ho Chi Minh City #236",
    "lat": 10.8231,
    "lng": 106.6297
  },
  {
    "name": "Hyderabad #237",
    "lat": 17.385,
    "lng": 78.4867
  },
  {
    "name": "Johannesburg #238",
    "lat": -26.2041,
    "lng": 28.0473
  },
  {
    "name": "Berlin #239",
    "lat": 52.52,
    "lng": 13.405
  },
  {
    "name": "Madrid #240",
    "lat": 40.4168,
    "lng": -3.7038
  },
  {
    "name": "Singapore #241",
    "lat": 1.3521,
    "lng": 103.8198
  },
  {
    "name": "Rome #242",
    "lat": 41.9028,
    "lng": 12.4964
  },
  {
    "name": "Toronto #243",
    "lat": 43.6532,
    "lng": -79.3832
  },
  {
    "name": "Chicago #244",
    "lat": 41.8781,
    "lng": -87.6298
  },
  {
    "name": "Boston #245",
    "lat": 42.3601,
    "lng": -71.0589
  },
  {
    "name": "Sydney #246",
    "lat": -33.8688,
    "lng": 151.2093
  },
  {
    "name": "Melbourne #247",
    "lat": -37.8136,
    "lng": 144.9631
  },
  {
    "name": "Barcelona #248",
    "lat": 41.3851,
    "lng": 2.1734
  },
  {
    "name": "Montreal #249",
    "lat": 45.5017,
    "lng": -73.5673
  },
  {
    "name": "San Francisco #250",
    "lat": 37.7749,
    "lng": -122.4194
  },
  {
    "name": "New York #51 #251",
    "lat": 40.7128,
    "lng": -74.006
  },
  {
    "name": "New York #52 #252",
    "lat": 40.7128,
    "lng": -74.006
  },
  {
    "name": "New York #53 #253",
    "lat": 40.7128,
    "lng": -74.006
  },
  {
    "name": "New York #54 #254",
    "lat": 40.7128,
    "lng": -74.006
  },
  {
    "name": "New York #55 #255",
    "lat": 40.7128,
    "lng": -74.006
  },
  {
    "name": "New York #56 #256",
    "lat": 40.7128,
    "lng": -74.006
  },
  {
    "name": "New York #57 #257",
    "lat": 40.7128,
    "lng": -74.006
  },
  {
    "name": "New York #58 #258",
    "lat": 40.7128,
    "lng": -74.006
  },
  {
    "name": "New York #59 #259",
    "lat": 40.7128,
    "lng": -74.006
  },
  {
    "name": "New York #60 #260",
    "lat": 40.7128,
    "lng": -74.006
  },
  {
    "name": "New York #61 #261",
    "lat": 40.7128,
    "lng": -74.006
  },
  {
    "name": "New York #62 #262",
    "lat": 40.7128,
    "lng": -74.006
  },
  {
    "name": "New York #63 #263",
    "lat": 40.7128,
    "lng": -74.006
  },
  {
    "name": "New York #64 #264",
    "lat": 40.7128,
    "lng": -74.006
  },
  {
    "name": "New York #65 #265",
    "lat": 40.7128,
    "lng": -74.006
  },
  {
    "name": "New York #66 #266",
    "lat": 40.7128,
    "lng": -74.006
  },
  {
    "name": "New York #67 #267",
    "lat": 40.7128,
    "lng": -74.006
  },
  {
    "name": "New York #68 #268",
    "lat": 40.7128,
    "lng": -74.006
  },
  {
    "name": "New York #69 #269",
    "lat": 40.7128,
    "lng": -74.006
  },
  {
    "name": "New York #70 #270",
    "lat": 40.7128,
    "lng": -74.006
  },
  {
    "name": "New York #71 #271",
    "lat": 40.7128,
    "lng": -74.006
  },
  {
    "name": "New York #72 #272",
    "lat": 40.7128,
    "lng": -74.006
  },
  {
    "name": "New York #73 #273",
    "lat": 40.7128,
    "lng": -74.006
  },
  {
    "name": "New York #74 #274",
    "lat": 40.7128,
    "lng": -74.006
  },
  {
    "name": "New York #75 #275",
    "lat": 40.7128,
    "lng": -74.006
  },
  {
    "name": "New York #76 #276",
    "lat": 40.7128,
    "lng": -74.006
  },
  {
    "name": "New York #77 #277",
    "lat": 40.7128,
    "lng": -74.006
  },
  {
    "name": "New York #78 #278",
    "lat": 40.7128,
    "lng": -74.006
  },
  {
    "name": "New York #79 #279",
    "lat": 40.7128,
    "lng": -74.006
  },
  {
    "name": "New York #80 #280",
    "lat": 40.7128,
    "lng": -74.006
  },
  {
    "name": "New York #81 #281",
    "lat": 40.7128,
    "lng": -74.006
  },
  {
    "name": "New York #82 #282",
    "lat": 40.7128,
    "lng": -74.006
  },
  {
    "name": "New York #83 #283",
    "lat": 40.7128,
    "lng": -74.006
  },
  {
    "name": "New York #84 #284",
    "lat": 40.7128,
    "lng": -74.006
  },
  {
    "name": "New York #85 #285",
    "lat": 40.7128,
    "lng": -74.006
  },
  {
    "name": "New York #86 #286",
    "lat": 40.7128,
    "lng": -74.006
  },
  {
    "name": "New York #87 #287",
    "lat": 40.7128,
    "lng": -74.006
  },
  {
    "name": "New York #88 #288",
    "lat": 40.7128,
    "lng": -74.006
  },
  {
    "name": "New York #89 #289",
    "lat": 40.7128,
    "lng": -74.006
  },
  {
    "name": "New York #90 #290",
    "lat": 40.7128,
    "lng": -74.006
  },
  {
    "name": "New York #91 #291",
    "lat": 40.7128,
    "lng": -74.006
  },
  {
    "name": "New York #92 #292",
    "lat": 40.7128,
    "lng": -74.006
  },
  {
    "name": "New York #93 #293",
    "lat": 40.7128,
    "lng": -74.006
  },
  {
    "name": "New York #94 #294",
    "lat": 40.7128,
    "lng": -74.006
  },
  {
    "name": "New York #95 #295",
    "lat": 40.7128,
    "lng": -74.006
  },
  {
    "name": "New York #96 #296",
    "lat": 40.7128,
    "lng": -74.006
  },
  {
    "name": "New York #97 #297",
    "lat": 40.7128,
    "lng": -74.006
  },
  {
    "name": "New York #98 #298",
    "lat": 40.7128,
    "lng": -74.006
  },
  {
    "name": "New York #99 #299",
    "lat": 40.7128,
    "lng": -74.006
  },
  {
    "name": "New York #100 #300",
    "lat": 40.7128,
    "lng": -74.006
  },
  {
    "name": "New York #301",
    "lat": 40.7128,
    "lng": -74.006
  },
  {
    "name": "Los Angeles #302",
    "lat": 34.0522,
    "lng": -118.2437
  },
  {
    "name": "Chicago #303",
    "lat": 41.8781,
    "lng": -87.6298
  },
  {
    "name": "Houston #304",
    "lat": 29.7604,
    "lng": -95.3698
  },
  {
    "name": "Phoenix #305",
    "lat": 33.4484,
    "lng": -112.074
  },
  {
    "name": "Philadelphia #306",
    "lat": 39.9526,
    "lng": -75.1652
  },
  {
    "name": "San Antonio #307",
    "lat": 29.4241,
    "lng": -98.4936
  },
  {
    "name": "San Diego #308",
    "lat": 32.7157,
    "lng": -117.1611
  },
  {
    "name": "Dallas #309",
    "lat": 32.7767,
    "lng": -96.797
  },
  {
    "name": "San Jose #310",
    "lat": 37.3382,
    "lng": -121.8863
  },
  {
    "name": "Tokyo #311",
    "lat": 35.6762,
    "lng": 139.6503
  },
  {
    "name": "Delhi #312",
    "lat": 28.7041,
    "lng": 77.1025
  },
  {
    "name": "Shanghai #313",
    "lat": 31.2304,
    "lng": 121.4737
  },
  {
    "name": "S\u00e3o Paulo #314",
    "lat": -23.5505,
    "lng": -46.6333
  },
  {
    "name": "Mumbai #315",
    "lat": 19.076,
    "lng": 72.8777
  },
  {
    "name": "Beijing #316",
    "lat": 39.9042,
    "lng": 116.4074
  },
  {
    "name": "Cairo #317",
    "lat": 30.0444,
    "lng": 31.2357
  },
  {
    "name": "Dhaka #318",
    "lat": 23.8103,
    "lng": 90.4125
  },
  {
    "name": "Mexico City #319",
    "lat": 19.4326,
    "lng": -99.1332
  },
  {
    "name": "Osaka #320",
    "lat": 34.6937,
    "lng": 135.5023
  },
  {
    "name": "Karachi #321",
    "lat": 24.8607,
    "lng": 67.0011
  },
  {
    "name": "Buenos Aires #322",
    "lat": -34.6037,
    "lng": -58.3816
  },
  {
    "name": "Istanbul #323",
    "lat": 41.0082,
    "lng": 28.9784
  },
  {
    "name": "Kolkata #324",
    "lat": 22.5726,
    "lng": 88.3639
  },
  {
    "name": "Manila #325",
    "lat": 14.5995,
    "lng": 120.9842
  },
  {
    "name": "Lagos #326",
    "lat": 6.5244,
    "lng": 3.3792
  },
  {
    "name": "Rio de Janeiro #327",
    "lat": -22.9068,
    "lng": -43.1729
  },
  {
    "name": "Tianjin #328",
    "lat": 39.3434,
    "lng": 117.3616
  },
  {
    "name": "Kinshasa #329",
    "lat": -4.4419,
    "lng": 15.2663
  },
  {
    "name": "Paris #330",
    "lat": 48.8566,
    "lng": 2.3522
  },
  {
    "name": "Lima #331",
    "lat": -12.0464,
    "lng": -77.0428
  },
  {
    "name": "Bangkok #332",
    "lat": 13.7563,
    "lng": 100.5018
  },
  {
    "name": "London #333",
    "lat": 51.5074,
    "lng": -0.1278
  },
  {
    "name": "Bangalore #334",
    "lat": 12.9716,
    "lng": 77.5946
  },
  {
    "name": "Bogot\u00e1 #335",
    "lat": 4.711,
    "lng": -74.0721
  },
  {
    "name": "Ho Chi Minh City #336",
    "lat": 10.8231,
    "lng": 106.6297
  },
  {
    "name": "Hyderabad #337",
    "lat": 17.385,
    "lng": 78.4867
  },
  {
    "name": "Johannesburg #338",
    "lat": -26.2041,
    "lng": 28.0473
  },
  {
    "name": "Berlin #339",
    "lat": 52.52,
    "lng": 13.405
  },
  {
    "name": "Madrid #340",
    "lat": 40.4168,
    "lng": -3.7038
  },
  {
    "name": "Singapore #341",
    "lat": 1.3521,
    "lng": 103.8198
  },
  {
    "name": "Rome #342",
    "lat": 41.9028,
    "lng": 12.4964
  },
  {
    "name": "Toronto #343",
    "lat": 43.6532,
    "lng": -79.3832
  },
  {
    "name": "Chicago #344",
    "lat": 41.8781,
    "lng": -87.6298
  },
  {
    "name": "Boston #345",
    "lat": 42.3601,
    "lng": -71.0589
  },
  {
    "name": "Sydney #346",
    "lat": -33.8688,
    "lng": 151.2093
  },
  {
    "name": "Melbourne #347",
    "lat": -37.8136,
    "lng": 144.9631
  },
  {
    "name": "Barcelona #348",
    "lat": 41.3851,
    "lng": 2.1734
  },
  {
    "name": "Montreal #349",
    "lat": 45.5017,
    "lng": -73.5673
  },
  {
    "name": "San Francisco #350",
    "lat": 37.7749,
    "lng": -122.4194
  },
  {
    "name": "New York #51 #351",
    "lat": 40.7128,
    "lng": -74.006
  },
  {
    "name": "New York #52 #352",
    "lat": 40.7128,
    "lng": -74.006
  },
  {
    "name": "New York #53 #353",
    "lat": 40.7128,
    "lng": -74.006
  },
  {
    "name": "New York #54 #354",
    "lat": 40.7128,
    "lng": -74.006
  },
  {
    "name": "New York #55 #355",
    "lat": 40.7128,
    "lng": -74.006
  },
  {
    "name": "New York #56 #356",
    "lat": 40.7128,
    "lng": -74.006
  },
  {
    "name": "New York #57 #357",
    "lat": 40.7128,
    "lng": -74.006
  },
  {
    "name": "New York #58 #358",
    "lat": 40.7128,
    "lng": -74.006
  },
  {
    "name": "New York #59 #359",
    "lat": 40.7128,
    "lng": -74.006
  },
  {
    "name": "New York #60 #360",
    "lat": 40.7128,
    "lng": -74.006
  },
  {
    "name": "New York #61 #361",
    "lat": 40.7128,
    "lng": -74.006
  },
  {
    "name": "New York #62 #362",
    "lat": 40.7128,
    "lng": -74.006
  },
  {
    "name": "New York #63 #363",
    "lat": 40.7128,
    "lng": -74.006
  },
  {
    "name": "New York #64 #364",
    "lat": 40.7128,
    "lng": -74.006
  },
  {
    "name": "New York #65 #365",
    "lat": 40.7128,
    "lng": -74.006
  },
  {
    "name": "New York #66 #366",
    "lat": 40.7128,
    "lng": -74.006
  },
  {
    "name": "New York #67 #367",
    "lat": 40.7128,
    "lng": -74.006
  },
  {
    "name": "New York #68 #368",
    "lat": 40.7128,
    "lng": -74.006
  },
  {
    "name": "New York #69 #369",
    "lat": 40.7128,
    "lng": -74.006
  },
  {
    "name": "New York #70 #370",
    "lat": 40.7128,
    "lng": -74.006
  },
  {
    "name": "New York #71 #371",
    "lat": 40.7128,
    "lng": -74.006
  },
  {
    "name": "New York #72 #372",
    "lat": 40.7128,
    "lng": -74.006
  },
  {
    "name": "New York #73 #373",
    "lat": 40.7128,
    "lng": -74.006
  },
  {
    "name": "New York #74 #374",
    "lat": 40.7128,
    "lng": -74.006
  },
  {
    "name": "New York #75 #375",
    "lat": 40.7128,
    "lng": -74.006
  },
  {
    "name": "New York #76 #376",
    "lat": 40.7128,
    "lng": -74.006
  },
  {
    "name": "New York #77 #377",
    "lat": 40.7128,
    "lng": -74.006
  },
  {
    "name": "New York #78 #378",
    "lat": 40.7128,
    "lng": -74.006
  },
  {
    "name": "New York #79 #379",
    "lat": 40.7128,
    "lng": -74.006
  },
  {
    "name": "New York #80 #380",
    "lat": 40.7128,
    "lng": -74.006
  },
  {
    "name": "New York #81 #381",
    "lat": 40.7128,
    "lng": -74.006
  },
  {
    "name": "New York #82 #382",
    "lat": 40.7128,
    "lng": -74.006
  },
  {
    "name": "New York #83 #383",
    "lat": 40.7128,
    "lng": -74.006
  },
  {
    "name": "New York #84 #384",
    "lat": 40.7128,
    "lng": -74.006
  },
  {
    "name": "New York #85 #385",
    "lat": 40.7128,
    "lng": -74.006
  },
  {
    "name": "New York #86 #386",
    "lat": 40.7128,
    "lng": -74.006
  },
  {
    "name": "New York #87 #387",
    "lat": 40.7128,
    "lng": -74.006
  },
  {
    "name": "New York #88 #388",
    "lat": 40.7128,
    "lng": -74.006
  },
  {
    "name": "New York #89 #389",
    "lat": 40.7128,
    "lng": -74.006
  },
  {
    "name": "New York #90 #390",
    "lat": 40.7128,
    "lng": -74.006
  },
  {
    "name": "New York #91 #391",
    "lat": 40.7128,
    "lng": -74.006
  },
  {
    "name": "New York #92 #392",
    "lat": 40.7128,
    "lng": -74.006
  },
  {
    "name": "New York #93 #393",
    "lat": 40.7128,
    "lng": -74.006
  },
  {
    "name": "New York #94 #394",
    "lat": 40.7128,
    "lng": -74.006
  },
  {
    "name": "New York #95 #395",
    "lat": 40.7128,
    "lng": -74.006
  },
  {
    "name": "New York #96 #396",
    "lat": 40.7128,
    "lng": -74.006
  },
  {
    "name": "New York #97 #397",
    "lat": 40.7128,
    "lng": -74.006
  },
  {
    "name": "New York #98 #398",
    "lat": 40.7128,
    "lng": -74.006
  },
  {
    "name": "New York #99 #399",
    "lat": 40.7128,
    "lng": -74.006
  },
  {
    "name": "New York #100 #400",
    "lat": 40.7128,
    "lng": -74.006
  },
  {
    "name": "New York #401",
    "lat": 40.7128,
    "lng": -74.006
  },
  {
    "name": "Los Angeles #402",
    "lat": 34.0522,
    "lng": -118.2437
  },
  {
    "name": "Chicago #403",
    "lat": 41.8781,
    "lng": -87.6298
  },
  {
    "name": "Houston #404",
    "lat": 29.7604,
    "lng": -95.3698
  },
  {
    "name": "Phoenix #405",
    "lat": 33.4484,
    "lng": -112.074
  },
  {
    "name": "Philadelphia #406",
    "lat": 39.9526,
    "lng": -75.1652
  },
  {
    "name": "San Antonio #407",
    "lat": 29.4241,
    "lng": -98.4936
  },
  {
    "name": "San Diego #408",
    "lat": 32.7157,
    "lng": -117.1611
  },
  {
    "name": "Dallas #409",
    "lat": 32.7767,
    "lng": -96.797
  },
  {
    "name": "San Jose #410",
    "lat": 37.3382,
    "lng": -121.8863
  },
  {
    "name": "Tokyo #411",
    "lat": 35.6762,
    "lng": 139.6503
  },
  {
    "name": "Delhi #412",
    "lat": 28.7041,
    "lng": 77.1025
  },
  {
    "name": "Shanghai #413",
    "lat": 31.2304,
    "lng": 121.4737
  },
  {
    "name": "S\u00e3o Paulo #414",
    "lat": -23.5505,
    "lng": -46.6333
  },
  {
    "name": "Mumbai #415",
    "lat": 19.076,
    "lng": 72.8777
  },
  {
    "name": "Beijing #416",
    "lat": 39.9042,
    "lng": 116.4074
  },
  {
    "name": "Cairo #417",
    "lat": 30.0444,
    "lng": 31.2357
  },
  {
    "name": "Dhaka #418",
    "lat": 23.8103,
    "lng": 90.4125
  },
  {
    "name": "Mexico City #419",
    "lat": 19.4326,
    "lng": -99.1332
  },
  {
    "name": "Osaka #420",
    "lat": 34.6937,
    "lng": 135.5023
  },
  {
    "name": "Karachi #421",
    "lat": 24.8607,
    "lng": 67.0011
  },
  {
    "name": "Buenos Aires #422",
    "lat": -34.6037,
    "lng": -58.3816
  },
  {
    "name": "Istanbul #423",
    "lat": 41.0082,
    "lng": 28.9784
  },
  {
    "name": "Kolkata #424",
    "lat": 22.5726,
    "lng": 88.3639
  },
  {
    "name": "Manila #425",
    "lat": 14.5995,
    "lng": 120.9842
  },
  {
    "name": "Lagos #426",
    "lat": 6.5244,
    "lng": 3.3792
  },
  {
    "name": "Rio de Janeiro #427",
    "lat": -22.9068,
    "lng": -43.1729
  },
  {
    "name": "Tianjin #428",
    "lat": 39.3434,
    "lng": 117.3616
  },
  {
    "name": "Kinshasa #429",
    "lat": -4.4419,
    "lng": 15.2663
  },
  {
    "name": "Paris #430",
    "lat": 48.8566,
    "lng": 2.3522
  },
  {
    "name": "Lima #431",
    "lat": -12.0464,
    "lng": -77.0428
  },
  {
    "name": "Bangkok #432",
    "lat": 13.7563,
    "lng": 100.5018
  },
  {
    "name": "London #433",
    "lat": 51.5074,
    "lng": -0.1278
  },
  {
    "name": "Bangalore #434",
    "lat": 12.9716,
    "lng": 77.5946
  },
  {
    "name": "Bogot\u00e1 #435",
    "lat": 4.711,
    "lng": -74.0721
  },
  {
    "name": "Ho Chi Minh City #436",
    "lat": 10.8231,
    "lng": 106.6297
  },
  {
    "name": "Hyderabad #437",
    "lat": 17.385,
    "lng": 78.4867
  },
  {
    "name": "Johannesburg #438",
    "lat": -26.2041,
    "lng": 28.0473
  },
  {
    "name": "Berlin #439",
    "lat": 52.52,
    "lng": 13.405
  },
  {
    "name": "Madrid #440",
    "lat": 40.4168,
    "lng": -3.7038
  },
  {
    "name": "Singapore #441",
    "lat": 1.3521,
    "lng": 103.8198
  },
  {
    "name": "Rome #442",
    "lat": 41.9028,
    "lng": 12.4964
  },
  {
    "name": "Toronto #443",
    "lat": 43.6532,
    "lng": -79.3832
  },
  {
    "name": "Chicago #444",
    "lat": 41.8781,
    "lng": -87.6298
  },
  {
    "name": "Boston #445",
    "lat": 42.3601,
    "lng": -71.0589
  },
  {
    "name": "Sydney #446",
    "lat": -33.8688,
    "lng": 151.2093
  },
  {
    "name": "Melbourne #447",
    "lat": -37.8136,
    "lng": 144.9631
  },
  {
    "name": "Barcelona #448",
    "lat": 41.3851,
    "lng": 2.1734
  },
  {
    "name": "Montreal #449",
    "lat": 45.5017,
    "lng": -73.5673
  },
  {
    "name": "San Francisco #450",
    "lat": 37.7749,
    "lng": -122.4194
  },
  {
    "name": "New York #51 #451",
    "lat": 40.7128,
    "lng": -74.006
  },
  {
    "name": "New York #52 #452",
    "lat": 40.7128,
    "lng": -74.006
  },
  {
    "name": "New York #53 #453",
    "lat": 40.7128,
    "lng": -74.006
  },
  {
    "name": "New York #54 #454",
    "lat": 40.7128,
    "lng": -74.006
  },
  {
    "name": "New York #55 #455",
    "lat": 40.7128,
    "lng": -74.006
  },
  {
    "name": "New York #56 #456",
    "lat": 40.7128,
    "lng": -74.006
  },
  {
    "name": "New York #57 #457",
    "lat": 40.7128,
    "lng": -74.006
  },
  {
    "name": "New York #58 #458",
    "lat": 40.7128,
    "lng": -74.006
  },
  {
    "name": "New York #59 #459",
    "lat": 40.7128,
    "lng": -74.006
  },
  {
    "name": "New York #60 #460",
    "lat": 40.7128,
    "lng": -74.006
  },
  {
    "name": "New York #61 #461",
    "lat": 40.7128,
    "lng": -74.006
  },
  {
    "name": "New York #62 #462",
    "lat": 40.7128,
    "lng": -74.006
  },
  {
    "name": "New York #63 #463",
    "lat": 40.7128,
    "lng": -74.006
  },
  {
    "name": "New York #64 #464",
    "lat": 40.7128,
    "lng": -74.006
  },
  {
    "name": "New York #65 #465",
    "lat": 40.7128,
    "lng": -74.006
  },
  {
    "name": "New York #66 #466",
    "lat": 40.7128,
    "lng": -74.006
  },
  {
    "name": "New York #67 #467",
    "lat": 40.7128,
    "lng": -74.006
  },
  {
    "name": "New York #68 #468",
    "lat": 40.7128,
    "lng": -74.006
  },
  {
    "name": "New York #69 #469",
    "lat": 40.7128,
    "lng": -74.006
  },
  {
    "name": "New York #70 #470",
    "lat": 40.7128,
    "lng": -74.006
  },
  {
    "name": "New York #71 #471",
    "lat": 40.7128,
    "lng": -74.006
  },
  {
    "name": "New York #72 #472",
    "lat": 40.7128,
    "lng": -74.006
  },
  {
    "name": "New York #73 #473",
    "lat": 40.7128,
    "lng": -74.006
  },
  {
    "name": "New York #74 #474",
    "lat": 40.7128,
    "lng": -74.006
  },
  {
    "name": "New York #75 #475",
    "lat": 40.7128,
    "lng": -74.006
  },
  {
    "name": "New York #76 #476",
    "lat": 40.7128,
    "lng": -74.006
  },
  {
    "name": "New York #77 #477",
    "lat": 40.7128,
    "lng": -74.006
  },
  {
    "name": "New York #78 #478",
    "lat": 40.7128,
    "lng": -74.006
  },
  {
    "name": "New York #79 #479",
    "lat": 40.7128,
    "lng": -74.006
  },
  {
    "name": "New York #80 #480",
    "lat": 40.7128,
    "lng": -74.006
  },
  {
    "name": "New York #81 #481",
    "lat": 40.7128,
    "lng": -74.006
  },
  {
    "name": "New York #82 #482",
    "lat": 40.7128,
    "lng": -74.006
  },
  {
    "name": "New York #83 #483",
    "lat": 40.7128,
    "lng": -74.006
  },
  {
    "name": "New York #84 #484",
    "lat": 40.7128,
    "lng": -74.006
  },
  {
    "name": "New York #85 #485",
    "lat": 40.7128,
    "lng": -74.006
  },
  {
    "name": "New York #86 #486",
    "lat": 40.7128,
    "lng": -74.006
  },
  {
    "name": "New York #87 #487",
    "lat": 40.7128,
    "lng": -74.006
  },
  {
    "name": "New York #88 #488",
    "lat": 40.7128,
    "lng": -74.006
  },
  {
    "name": "New York #89 #489",
    "lat": 40.7128,
    "lng": -74.006
  },
  {
    "name": "New York #90 #490",
    "lat": 40.7128,
    "lng": -74.006
  },
  {
    "name": "New York #91 #491",
    "lat": 40.7128,
    "lng": -74.006
  },
  {
    "name": "New York #92 #492",
    "lat": 40.7128,
    "lng": -74.006
  },
  {
    "name": "New York #93 #493",
    "lat": 40.7128,
    "lng": -74.006
  },
  {
    "name": "New York #94 #494",
    "lat": 40.7128,
    "lng": -74.006
  },
  {
    "name": "New York #95 #495",
    "lat": 40.7128,
    "lng": -74.006
  },
  {
    "name": "New York #96 #496",
    "lat": 40.7128,
    "lng": -74.006
  },
  {
    "name": "New York #97 #497",
    "lat": 40.7128,
    "lng": -74.006
  },
  {
    "name": "New York #98 #498",
    "lat": 40.7128,
    "lng": -74.006
  },
  {
    "name": "New York #99 #499",
    "lat": 40.7128,
    "lng": -74.006
  },
  {
    "name": "New York #100 #500",
    "lat": 40.7128,
    "lng": -74.006
  },
  {
    "name": "New York #501",
    "lat": 40.7128,
    "lng": -74.006
  },
  {
    "name": "Los Angeles #502",
    "lat": 34.0522,
    "lng": -118.2437
  },
  {
    "name": "Chicago #503",
    "lat": 41.8781,
    "lng": -87.6298
  },
  {
    "name": "Houston #504",
    "lat": 29.7604,
    "lng": -95.3698
  },
  {
    "name": "Phoenix #505",
    "lat": 33.4484,
    "lng": -112.074
  },
  {
    "name": "Philadelphia #506",
    "lat": 39.9526,
    "lng": -75.1652
  },
  {
    "name": "San Antonio #507",
    "lat": 29.4241,
    "lng": -98.4936
  },
  {
    "name": "San Diego #508",
    "lat": 32.7157,
    "lng": -117.1611
  },
  {
    "name": "Dallas #509",
    "lat": 32.7767,
    "lng": -96.797
  },
  {
    "name": "San Jose #510",
    "lat": 37.3382,
    "lng": -121.8863
  },
  {
    "name": "Tokyo #511",
    "lat": 35.6762,
    "lng": 139.6503
  },
  {
    "name": "Delhi #512",
    "lat": 28.7041,
    "lng": 77.1025
  },
  {
    "name": "Shanghai #513",
    "lat": 31.2304,
    "lng": 121.4737
  },
  {
    "name": "S\u00e3o Paulo #514",
    "lat": -23.5505,
    "lng": -46.6333
  },
  {
    "name": "Mumbai #515",
    "lat": 19.076,
    "lng": 72.8777
  },
  {
    "name": "Beijing #516",
    "lat": 39.9042,
    "lng": 116.4074
  },
  {
    "name": "Cairo #517",
    "lat": 30.0444,
    "lng": 31.2357
  },
  {
    "name": "Dhaka #518",
    "lat": 23.8103,
    "lng": 90.4125
  },
  {
    "name": "Mexico City #519",
    "lat": 19.4326,
    "lng": -99.1332
  },
  {
    "name": "Osaka #520",
    "lat": 34.6937,
    "lng": 135.5023
  },
  {
    "name": "Karachi #521",
    "lat": 24.8607,
    "lng": 67.0011
  },
  {
    "name": "Buenos Aires #522",
    "lat": -34.6037,
    "lng": -58.3816
  },
  {
    "name": "Istanbul #523",
    "lat": 41.0082,
    "lng": 28.9784
  },
  {
    "name": "Kolkata #524",
    "lat": 22.5726,
    "lng": 88.3639
  },
  {
    "name": "Manila #525",
    "lat": 14.5995,
    "lng": 120.9842
  },
  {
    "name": "Lagos #526",
    "lat": 6.5244,
    "lng": 3.3792
  },
  {
    "name": "Rio de Janeiro #527",
    "lat": -22.9068,
    "lng": -43.1729
  },
  {
    "name": "Tianjin #528",
    "lat": 39.3434,
    "lng": 117.3616
  },
  {
    "name": "Kinshasa #529",
    "lat": -4.4419,
    "lng": 15.2663
  },
  {
    "name": "Paris #530",
    "lat": 48.8566,
    "lng": 2.3522
  },
  {
    "name": "Lima #531",
    "lat": -12.0464,
    "lng": -77.0428
  },
  {
    "name": "Bangkok #532",
    "lat": 13.7563,
    "lng": 100.5018
  },
  {
    "name": "London #533",
    "lat": 51.5074,
    "lng": -0.1278
  },
  {
    "name": "Bangalore #534",
    "lat": 12.9716,
    "lng": 77.5946
  },
  {
    "name": "Bogot\u00e1 #535",
    "lat": 4.711,
    "lng": -74.0721
  },
  {
    "name": "Ho Chi Minh City #536",
    "lat": 10.8231,
    "lng": 106.6297
  },
  {
    "name": "Hyderabad #537",
    "lat": 17.385,
    "lng": 78.4867
  },
  {
    "name": "Johannesburg #538",
    "lat": -26.2041,
    "lng": 28.0473
  },
  {
    "name": "Berlin #539",
    "lat": 52.52,
    "lng": 13.405
  },
  {
    "name": "Madrid #540",
    "lat": 40.4168,
    "lng": -3.7038
  },
  {
    "name": "Singapore #541",
    "lat": 1.3521,
    "lng": 103.8198
  },
  {
    "name": "Rome #542",
    "lat": 41.9028,
    "lng": 12.4964
  },
  {
    "name": "Toronto #543",
    "lat": 43.6532,
    "lng": -79.3832
  },
  {
    "name": "Chicago #544",
    "lat": 41.8781,
    "lng": -87.6298
  },
  {
    "name": "Boston #545",
    "lat": 42.3601,
    "lng": -71.0589
  },
  {
    "name": "Sydney #546",
    "lat": -33.8688,
    "lng": 151.2093
  },
  {
    "name": "Melbourne #547",
    "lat": -37.8136,
    "lng": 144.9631
  },
  {
    "name": "Barcelona #548",
    "lat": 41.3851,
    "lng": 2.1734
  },
  {
    "name": "Montreal #549",
    "lat": 45.5017,
    "lng": -73.5673
  },
  {
    "name": "San Francisco #550",
    "lat": 37.7749,
    "lng": -122.4194
  },
  {
    "name": "New York #51 #551",
    "lat": 40.7128,
    "lng": -74.006
  },
  {
    "name": "New York #52 #552",
    "lat": 40.7128,
    "lng": -74.006
  },
  {
    "name": "New York #53 #553",
    "lat": 40.7128,
    "lng": -74.006
  },
  {
    "name": "New York #54 #554",
    "lat": 40.7128,
    "lng": -74.006
  },
  {
    "name": "New York #55 #555",
    "lat": 40.7128,
    "lng": -74.006
  },
  {
    "name": "New York #56 #556",
    "lat": 40.7128,
    "lng": -74.006
  },
  {
    "name": "New York #57 #557",
    "lat": 40.7128,
    "lng": -74.006
  },
  {
    "name": "New York #58 #558",
    "lat": 40.7128,
    "lng": -74.006
  },
  {
    "name": "New York #59 #559",
    "lat": 40.7128,
    "lng": -74.006
  },
  {
    "name": "New York #60 #560",
    "lat": 40.7128,
    "lng": -74.006
  },
  {
    "name": "New York #61 #561",
    "lat": 40.7128,
    "lng": -74.006
  },
  {
    "name": "New York #62 #562",
    "lat": 40.7128,
    "lng": -74.006
  },
  {
    "name": "New York #63 #563",
    "lat": 40.7128,
    "lng": -74.006
  },
  {
    "name": "New York #64 #564",
    "lat": 40.7128,
    "lng": -74.006
  },
  {
    "name": "New York #65 #565",
    "lat": 40.7128,
    "lng": -74.006
  },
  {
    "name": "New York #66 #566",
    "lat": 40.7128,
    "lng": -74.006
  },
  {
    "name": "New York #67 #567",
    "lat": 40.7128,
    "lng": -74.006
  },
  {
    "name": "New York #68 #568",
    "lat": 40.7128,
    "lng": -74.006
  },
  {
    "name": "New York #69 #569",
    "lat": 40.7128,
    "lng": -74.006
  },
  {
    "name": "New York #70 #570",
    "lat": 40.7128,
    "lng": -74.006
  },
  {
    "name": "New York #71 #571",
    "lat": 40.7128,
    "lng": -74.006
  },
  {
    "name": "New York #72 #572",
    "lat": 40.7128,
    "lng": -74.006
  },
  {
    "name": "New York #73 #573",
    "lat": 40.7128,
    "lng": -74.006
  },
  {
    "name": "New York #74 #574",
    "lat": 40.7128,
    "lng": -74.006
  },
  {
    "name": "New York #75 #575",
    "lat": 40.7128,
    "lng": -74.006
  },
  {
    "name": "New York #76 #576",
    "lat": 40.7128,
    "lng": -74.006
  },
  {
    "name": "New York #77 #577",
    "lat": 40.7128,
    "lng": -74.006
  },
  {
    "name": "New York #78 #578",
    "lat": 40.7128,
    "lng": -74.006
  },
  {
    "name": "New York #79 #579",
    "lat": 40.7128,
    "lng": -74.006
  },
  {
    "name": "New York #80 #580",
    "lat": 40.7128,
    "lng": -74.006
  },
  {
    "name": "New York #81 #581",
    "lat": 40.7128,
    "lng": -74.006
  },
  {
    "name": "New York #82 #582",
    "lat": 40.7128,
    "lng": -74.006
  },
  {
    "name": "New York #83 #583",
    "lat": 40.7128,
    "lng": -74.006
  },
  {
    "name": "New York #84 #584",
    "lat": 40.7128,
    "lng": -74.006
  },
  {
    "name": "New York #85 #585",
    "lat": 40.7128,
    "lng": -74.006
  },
  {
    "name": "New York #86 #586",
    "lat": 40.7128,
    "lng": -74.006
  },
  {
    "name": "New York #87 #587",
    "lat": 40.7128,
    "lng": -74.006
  },
  {
    "name": "New York #88 #588",
    "lat": 40.7128,
    "lng": -74.006
  },
  {
    "name": "New York #89 #589",
    "lat": 40.7128,
    "lng": -74.006
  },
  {
    "name": "New York #90 #590",
    "lat": 40.7128,
    "lng": -74.006
  },
  {
    "name": "New York #91 #591",
    "lat": 40.7128,
    "lng": -74.006
  },
  {
    "name": "New York #92 #592",
    "lat": 40.7128,
    "lng": -74.006
  },
  {
    "name": "New York #93 #593",
    "lat": 40.7128,
    "lng": -74.006
  },
  {
    "name": "New York #94 #594",
    "lat": 40.7128,
    "lng": -74.006
  },
  {
    "name": "New York #95 #595",
    "lat": 40.7128,
    "lng": -74.006
  },
  {
    "name": "New York #96 #596",
    "lat": 40.7128,
    "lng": -74.006
  },
  {
    "name": "New York #97 #597",
    "lat": 40.7128,
    "lng": -74.006
  },
  {
    "name": "New York #98 #598",
    "lat": 40.7128,
    "lng": -74.006
  },
  {
    "name": "New York #99 #599",
    "lat": 40.7128,
    "lng": -74.006
  },
  {
    "name": "New York #100 #600",
    "lat": 40.7128,
    "lng": -74.006
  },
  {
    "name": "New York #601",
    "lat": 40.7128,
    "lng": -74.006
  },
  {
    "name": "Los Angeles #602",
    "lat": 34.0522,
    "lng": -118.2437
  },
  {
    "name": "Chicago #603",
    "lat": 41.8781,
    "lng": -87.6298
  },
  {
    "name": "Houston #604",
    "lat": 29.7604,
    "lng": -95.3698
  },
  {
    "name": "Phoenix #605",
    "lat": 33.4484,
    "lng": -112.074
  },
  {
    "name": "Philadelphia #606",
    "lat": 39.9526,
    "lng": -75.1652
  },
  {
    "name": "San Antonio #607",
    "lat": 29.4241,
    "lng": -98.4936
  },
  {
    "name": "San Diego #608",
    "lat": 32.7157,
    "lng": -117.1611
  },
  {
    "name": "Dallas #609",
    "lat": 32.7767,
    "lng": -96.797
  },
  {
    "name": "San Jose #610",
    "lat": 37.3382,
    "lng": -121.8863
  },
  {
    "name": "Tokyo #611",
    "lat": 35.6762,
    "lng": 139.6503
  },
  {
    "name": "Delhi #612",
    "lat": 28.7041,
    "lng": 77.1025
  },
  {
    "name": "Shanghai #613",
    "lat": 31.2304,
    "lng": 121.4737
  },
  {
    "name": "S\u00e3o Paulo #614",
    "lat": -23.5505,
    "lng": -46.6333
  },
  {
    "name": "Mumbai #615",
    "lat": 19.076,
    "lng": 72.8777
  },
  {
    "name": "Beijing #616",
    "lat": 39.9042,
    "lng": 116.4074
  },
  {
    "name": "Cairo #617",
    "lat": 30.0444,
    "lng": 31.2357
  },
  {
    "name": "Dhaka #618",
    "lat": 23.8103,
    "lng": 90.4125
  },
  {
    "name": "Mexico City #619",
    "lat": 19.4326,
    "lng": -99.1332
  },
  {
    "name": "Osaka #620",
    "lat": 34.6937,
    "lng": 135.5023
  },
  {
    "name": "Karachi #621",
    "lat": 24.8607,
    "lng": 67.0011
  },
  {
    "name": "Buenos Aires #622",
    "lat": -34.6037,
    "lng": -58.3816
  },
  {
    "name": "Istanbul #623",
    "lat": 41.0082,
    "lng": 28.9784
  },
  {
    "name": "Kolkata #624",
    "lat": 22.5726,
    "lng": 88.3639
  },
  {
    "name": "Manila #625",
    "lat": 14.5995,
    "lng": 120.9842
  },
  {
    "name": "Lagos #626",
    "lat": 6.5244,
    "lng": 3.3792
  },
  {
    "name": "Rio de Janeiro #627",
    "lat": -22.9068,
    "lng": -43.1729
  },
  {
    "name": "Tianjin #628",
    "lat": 39.3434,
    "lng": 117.3616
  },
  {
    "name": "Kinshasa #629",
    "lat": -4.4419,
    "lng": 15.2663
  },
  {
    "name": "Paris #630",
    "lat": 48.8566,
    "lng": 2.3522
  },
  {
    "name": "Lima #631",
    "lat": -12.0464,
    "lng": -77.0428
  },
  {
    "name": "Bangkok #632",
    "lat": 13.7563,
    "lng": 100.5018
  },
  {
    "name": "London #633",
    "lat": 51.5074,
    "lng": -0.1278
  },
  {
    "name": "Bangalore #634",
    "lat": 12.9716,
    "lng": 77.5946
  },
  {
    "name": "Bogot\u00e1 #635",
    "lat": 4.711,
    "lng": -74.0721
  },
  {
    "name": "Ho Chi Minh City #636",
    "lat": 10.8231,
    "lng": 106.6297
  },
  {
    "name": "Hyderabad #637",
    "lat": 17.385,
    "lng": 78.4867
  },
  {
    "name": "Johannesburg #638",
    "lat": -26.2041,
    "lng": 28.0473
  },
  {
    "name": "Berlin #639",
    "lat": 52.52,
    "lng": 13.405
  },
  {
    "name": "Madrid #640",
    "lat": 40.4168,
    "lng": -3.7038
  },
  {
    "name": "Singapore #641",
    "lat": 1.3521,
    "lng": 103.8198
  },
  {
    "name": "Rome #642",
    "lat": 41.9028,
    "lng": 12.4964
  },
  {
    "name": "Toronto #643",
    "lat": 43.6532,
    "lng": -79.3832
  },
  {
    "name": "Chicago #644",
    "lat": 41.8781,
    "lng": -87.6298
  },
  {
    "name": "Boston #645",
    "lat": 42.3601,
    "lng": -71.0589
  },
  {
    "name": "Sydney #646",
    "lat": -33.8688,
    "lng": 151.2093
  },
  {
    "name": "Melbourne #647",
    "lat": -37.8136,
    "lng": 144.9631
  },
  {
    "name": "Barcelona #648",
    "lat": 41.3851,
    "lng": 2.1734
  },
  {
    "name": "Montreal #649",
    "lat": 45.5017,
    "lng": -73.5673
  },
  {
    "name": "San Francisco #650",
    "lat": 37.7749,
    "lng": -122.4194
  },
  {
    "name": "New York #51 #651",
    "lat": 40.7128,
    "lng": -74.006
  },
  {
    "name": "New York #52 #652",
    "lat": 40.7128,
    "lng": -74.006
  },
  {
    "name": "New York #53 #653",
    "lat": 40.7128,
    "lng": -74.006
  },
  {
    "name": "New York #54 #654",
    "lat": 40.7128,
    "lng": -74.006
  },
  {
    "name": "New York #55 #655",
    "lat": 40.7128,
    "lng": -74.006
  },
  {
    "name": "New York #56 #656",
    "lat": 40.7128,
    "lng": -74.006
  },
  {
    "name": "New York #57 #657",
    "lat": 40.7128,
    "lng": -74.006
  },
  {
    "name": "New York #58 #658",
    "lat": 40.7128,
    "lng": -74.006
  },
  {
    "name": "New York #59 #659",
    "lat": 40.7128,
    "lng": -74.006
  },
  {
    "name": "New York #60 #660",
    "lat": 40.7128,
    "lng": -74.006
  },
  {
    "name": "New York #61 #661",
    "lat": 40.7128,
    "lng": -74.006
  },
  {
    "name": "New York #62 #662",
    "lat": 40.7128,
    "lng": -74.006
  },
  {
    "name": "New York #63 #663",
    "lat": 40.7128,
    "lng": -74.006
  },
  {
    "name": "New York #64 #664",
    "lat": 40.7128,
    "lng": -74.006
  },
  {
    "name": "New York #65 #665",
    "lat": 40.7128,
    "lng": -74.006
  },
  {
    "name": "New York #66 #666",
    "lat": 40.7128,
    "lng": -74.006
  },
  {
    "name": "New York #67 #667",
    "lat": 40.7128,
    "lng": -74.006
  },
  {
    "name": "New York #68 #668",
    "lat": 40.7128,
    "lng": -74.006
  },
  {
    "name": "New York #69 #669",
    "lat": 40.7128,
    "lng": -74.006
  },
  {
    "name": "New York #70 #670",
    "lat": 40.7128,
    "lng": -74.006
  },
  {
    "name": "New York #71 #671",
    "lat": 40.7128,
    "lng": -74.006
  },
  {
    "name": "New York #72 #672",
    "lat": 40.7128,
    "lng": -74.006
  },
  {
    "name": "New York #73 #673",
    "lat": 40.7128,
    "lng": -74.006
  },
  {
    "name": "New York #74 #674",
    "lat": 40.7128,
    "lng": -74.006
  },
  {
    "name": "New York #75 #675",
    "lat": 40.7128,
    "lng": -74.006
  },
  {
    "name": "New York #76 #676",
    "lat": 40.7128,
    "lng": -74.006
  },
  {
    "name": "New York #77 #677",
    "lat": 40.7128,
    "lng": -74.006
  },
  {
    "name": "New York #78 #678",
    "lat": 40.7128,
    "lng": -74.006
  },
  {
    "name": "New York #79 #679",
    "lat": 40.7128,
    "lng": -74.006
  },
  {
    "name": "New York #80 #680",
    "lat": 40.7128,
    "lng": -74.006
  },
  {
    "name": "New York #81 #681",
    "lat": 40.7128,
    "lng": -74.006
  },
  {
    "name": "New York #82 #682",
    "lat": 40.7128,
    "lng": -74.006
  },
  {
    "name": "New York #83 #683",
    "lat": 40.7128,
    "lng": -74.006
  },
  {
    "name": "New York #84 #684",
    "lat": 40.7128,
    "lng": -74.006
  },
  {
    "name": "New York #85 #685",
    "lat": 40.7128,
    "lng": -74.006
  },
  {
    "name": "New York #86 #686",
    "lat": 40.7128,
    "lng": -74.006
  },
  {
    "name": "New York #87 #687",
    "lat": 40.7128,
    "lng": -74.006
  },
  {
    "name": "New York #88 #688",
    "lat": 40.7128,
    "lng": -74.006
  },
  {
    "name": "New York #89 #689",
    "lat": 40.7128,
    "lng": -74.006
  },
  {
    "name": "New York #90 #690",
    "lat": 40.7128,
    "lng": -74.006
  },
  {
    "name": "New York #91 #691",
    "lat": 40.7128,
    "lng": -74.006
  },
  {
    "name": "New York #92 #692",
    "lat": 40.7128,
    "lng": -74.006
  },
  {
    "name": "New York #93 #693",
    "lat": 40.7128,
    "lng": -74.006
  },
  {
    "name": "New York #94 #694",
    "lat": 40.7128,
    "lng": -74.006
  },
  {
    "name": "New York #95 #695",
    "lat": 40.7128,
    "lng": -74.006
  },
  {
    "name": "New York #96 #696",
    "lat": 40.7128,
    "lng": -74.006
  },
  {
    "name": "New York #97 #697",
    "lat": 40.7128,
    "lng": -74.006
  },
  {
    "name": "New York #98 #698",
    "lat": 40.7128,
    "lng": -74.006
  },
  {
    "name": "New York #99 #699",
    "lat": 40.7128,
    "lng": -74.006
  },
  {
    "name": "New York #100 #700",
    "lat": 40.7128,
    "lng": -74.006
  },
  {
    "name": "New York #701",
    "lat": 40.7128,
    "lng": -74.006
  },
  {
    "name": "Los Angeles #702",
    "lat": 34.0522,
    "lng": -118.2437
  },
  {
    "name": "Chicago #703",
    "lat": 41.8781,
    "lng": -87.6298
  },
  {
    "name": "Houston #704",
    "lat": 29.7604,
    "lng": -95.3698
  },
  {
    "name": "Phoenix #705",
    "lat": 33.4484,
    "lng": -112.074
  },
  {
    "name": "Philadelphia #706",
    "lat": 39.9526,
    "lng": -75.1652
  },
  {
    "name": "San Antonio #707",
    "lat": 29.4241,
    "lng": -98.4936
  },
  {
    "name": "San Diego #708",
    "lat": 32.7157,
    "lng": -117.1611
  },
  {
    "name": "Dallas #709",
    "lat": 32.7767,
    "lng": -96.797
  },
  {
    "name": "San Jose #710",
    "lat": 37.3382,
    "lng": -121.8863
  },
  {
    "name": "Tokyo #711",
    "lat": 35.6762,
    "lng": 139.6503
  },
  {
    "name": "Delhi #712",
    "lat": 28.7041,
    "lng": 77.1025
  },
  {
    "name": "Shanghai #713",
    "lat": 31.2304,
    "lng": 121.4737
  },
  {
    "name": "S\u00e3o Paulo #714",
    "lat": -23.5505,
    "lng": -46.6333
  },
  {
    "name": "Mumbai #715",
    "lat": 19.076,
    "lng": 72.8777
  },
  {
    "name": "Beijing #716",
    "lat": 39.9042,
    "lng": 116.4074
  },
  {
    "name": "Cairo #717",
    "lat": 30.0444,
    "lng": 31.2357
  },
  {
    "name": "Dhaka #718",
    "lat": 23.8103,
    "lng": 90.4125
  },
  {
    "name": "Mexico City #719",
    "lat": 19.4326,
    "lng": -99.1332
  },
  {
    "name": "Osaka #720",
    "lat": 34.6937,
    "lng": 135.5023
  },
  {
    "name": "Karachi #721",
    "lat": 24.8607,
    "lng": 67.0011
  },
  {
    "name": "Buenos Aires #722",
    "lat": -34.6037,
    "lng": -58.3816
  },
  {
    "name": "Istanbul #723",
    "lat": 41.0082,
    "lng": 28.9784
  },
  {
    "name": "Kolkata #724",
    "lat": 22.5726,
    "lng": 88.3639
  },
  {
    "name": "Manila #725",
    "lat": 14.5995,
    "lng": 120.9842
  },
  {
    "name": "Lagos #726",
    "lat": 6.5244,
    "lng": 3.3792
  },
  {
    "name": "Rio de Janeiro #727",
    "lat": -22.9068,
    "lng": -43.1729
  },
  {
    "name": "Tianjin #728",
    "lat": 39.3434,
    "lng": 117.3616
  },
  {
    "name": "Kinshasa #729",
    "lat": -4.4419,
    "lng": 15.2663
  },
  {
    "name": "Paris #730",
    "lat": 48.8566,
    "lng": 2.3522
  },
  {
    "name": "Lima #731",
    "lat": -12.0464,
    "lng": -77.0428
  },
  {
    "name": "Bangkok #732",
    "lat": 13.7563,
    "lng": 100.5018
  },
  {
    "name": "London #733",
    "lat": 51.5074,
    "lng": -0.1278
  },
  {
    "name": "Bangalore #734",
    "lat": 12.9716,
    "lng": 77.5946
  },
  {
    "name": "Bogot\u00e1 #735",
    "lat": 4.711,
    "lng": -74.0721
  },
  {
    "name": "Ho Chi Minh City #736",
    "lat": 10.8231,
    "lng": 106.6297
  },
  {
    "name": "Hyderabad #737",
    "lat": 17.385,
    "lng": 78.4867
  },
  {
    "name": "Johannesburg #738",
    "lat": -26.2041,
    "lng": 28.0473
  },
  {
    "name": "Berlin #739",
    "lat": 52.52,
    "lng": 13.405
  },
  {
    "name": "Madrid #740",
    "lat": 40.4168,
    "lng": -3.7038
  },
  {
    "name": "Singapore #741",
    "lat": 1.3521,
    "lng": 103.8198
  },
  {
    "name": "Rome #742",
    "lat": 41.9028,
    "lng": 12.4964
  },
  {
    "name": "Toronto #743",
    "lat": 43.6532,
    "lng": -79.3832
  },
  {
    "name": "Chicago #744",
    "lat": 41.8781,
    "lng": -87.6298
  },
  {
    "name": "Boston #745",
    "lat": 42.3601,
    "lng": -71.0589
  },
  {
    "name": "Sydney #746",
    "lat": -33.8688,
    "lng": 151.2093
  },
  {
    "name": "Melbourne #747",
    "lat": -37.8136,
    "lng": 144.9631
  },
  {
    "name": "Barcelona #748",
    "lat": 41.3851,
    "lng": 2.1734
  },
  {
    "name": "Montreal #749",
    "lat": 45.5017,
    "lng": -73.5673
  },
  {
    "name": "San Francisco #750",
    "lat": 37.7749,
    "lng": -122.4194
  },
  {
    "name": "New York #51 #751",
    "lat": 40.7128,
    "lng": -74.006
  },
  {
    "name": "New York #52 #752",
    "lat": 40.7128,
    "lng": -74.006
  },
  {
    "name": "New York #53 #753",
    "lat": 40.7128,
    "lng": -74.006
  },
  {
    "name": "New York #54 #754",
    "lat": 40.7128,
    "lng": -74.006
  },
  {
    "name": "New York #55 #755",
    "lat": 40.7128,
    "lng": -74.006
  },
  {
    "name": "New York #56 #756",
    "lat": 40.7128,
    "lng": -74.006
  },
  {
    "name": "New York #57 #757",
    "lat": 40.7128,
    "lng": -74.006
  },
  {
    "name": "New York #58 #758",
    "lat": 40.7128,
    "lng": -74.006
  },
  {
    "name": "New York #59 #759",
    "lat": 40.7128,
    "lng": -74.006
  },
  {
    "name": "New York #60 #760",
    "lat": 40.7128,
    "lng": -74.006
  },
  {
    "name": "New York #61 #761",
    "lat": 40.7128,
    "lng": -74.006
  },
  {
    "name": "New York #62 #762",
    "lat": 40.7128,
    "lng": -74.006
  },
  {
    "name": "New York #63 #763",
    "lat": 40.7128,
    "lng": -74.006
  },
  {
    "name": "New York #64 #764",
    "lat": 40.7128,
    "lng": -74.006
  },
  {
    "name": "New York #65 #765",
    "lat": 40.7128,
    "lng": -74.006
  },
  {
    "name": "New York #66 #766",
    "lat": 40.7128,
    "lng": -74.006
  },
  {
    "name": "New York #67 #767",
    "lat": 40.7128,
    "lng": -74.006
  },
  {
    "name": "New York #68 #768",
    "lat": 40.7128,
    "lng": -74.006
  },
  {
    "name": "New York #69 #769",
    "lat": 40.7128,
    "lng": -74.006
  },
  {
    "name": "New York #70 #770",
    "lat": 40.7128,
    "lng": -74.006
  },
  {
    "name": "New York #71 #771",
    "lat": 40.7128,
    "lng": -74.006
  },
  {
    "name": "New York #72 #772",
    "lat": 40.7128,
    "lng": -74.006
  },
  {
    "name": "New York #73 #773",
    "lat": 40.7128,
    "lng": -74.006
  },
  {
    "name": "New York #74 #774",
    "lat": 40.7128,
    "lng": -74.006
  },
  {
    "name": "New York #75 #775",
    "lat": 40.7128,
    "lng": -74.006
  },
  {
    "name": "New York #76 #776",
    "lat": 40.7128,
    "lng": -74.006
  },
  {
    "name": "New York #77 #777",
    "lat": 40.7128,
    "lng": -74.006
  },
  {
    "name": "New York #78 #778",
    "lat": 40.7128,
    "lng": -74.006
  },
  {
    "name": "New York #79 #779",
    "lat": 40.7128,
    "lng": -74.006
  },
  {
    "name": "New York #80 #780",
    "lat": 40.7128,
    "lng": -74.006
  },
  {
    "name": "New York #81 #781",
    "lat": 40.7128,
    "lng": -74.006
  },
  {
    "name": "New York #82 #782",
    "lat": 40.7128,
    "lng": -74.006
  },
  {
    "name": "New York #83 #783",
    "lat": 40.7128,
    "lng": -74.006
  },
  {
    "name": "New York #84 #784",
    "lat": 40.7128,
    "lng": -74.006
  },
  {
    "name": "New York #85 #785",
    "lat": 40.7128,
    "lng": -74.006
  },
  {
    "name": "New York #86 #786",
    "lat": 40.7128,
    "lng": -74.006
  },
  {
    "name": "New York #87 #787",
    "lat": 40.7128,
    "lng": -74.006
  },
  {
    "name": "New York #88 #788",
    "lat": 40.7128,
    "lng": -74.006
  },
  {
    "name": "New York #89 #789",
    "lat": 40.7128,
    "lng": -74.006
  },
  {
    "name": "New York #90 #790",
    "lat": 40.7128,
    "lng": -74.006
  },
  {
    "name": "New York #91 #791",
    "lat": 40.7128,
    "lng": -74.006
  },
  {
    "name": "New York #92 #792",
    "lat": 40.7128,
    "lng": -74.006
  },
  {
    "name": "New York #93 #793",
    "lat": 40.7128,
    "lng": -74.006
  },
  {
    "name": "New York #94 #794",
    "lat": 40.7128,
    "lng": -74.006
  },
  {
    "name": "New York #95 #795",
    "lat": 40.7128,
    "lng": -74.006
  },
  {
    "name": "New York #96 #796",
    "lat": 40.7128,
    "lng": -74.006
  },
  {
    "name": "New York #97 #797",
    "lat": 40.7128,
    "lng": -74.006
  },
  {
    "name": "New York #98 #798",
    "lat": 40.7128,
    "lng": -74.006
  },
  {
    "name": "New York #99 #799",
    "lat": 40.7128,
    "lng": -74.006
  },
  {
    "name": "New York #100 #800",
    "lat": 40.7128,
    "lng": -74.006
  },
  {
    "name": "New York #801",
    "lat": 40.7128,
    "lng": -74.006
  },
  {
    "name": "Los Angeles #802",
    "lat": 34.0522,
    "lng": -118.2437
  },
  {
    "name": "Chicago #803",
    "lat": 41.8781,
    "lng": -87.6298
  },
  {
    "name": "Houston #804",
    "lat": 29.7604,
    "lng": -95.3698
  },
  {
    "name": "Phoenix #805",
    "lat": 33.4484,
    "lng": -112.074
  },
  {
    "name": "Philadelphia #806",
    "lat": 39.9526,
    "lng": -75.1652
  },
  {
    "name": "San Antonio #807",
    "lat": 29.4241,
    "lng": -98.4936
  },
  {
    "name": "San Diego #808",
    "lat": 32.7157,
    "lng": -117.1611
  },
  {
    "name": "Dallas #809",
    "lat": 32.7767,
    "lng": -96.797
  },
  {
    "name": "San Jose #810",
    "lat": 37.3382,
    "lng": -121.8863
  },
  {
    "name": "Tokyo #811",
    "lat": 35.6762,
    "lng": 139.6503
  },
  {
    "name": "Delhi #812",
    "lat": 28.7041,
    "lng": 77.1025
  },
  {
    "name": "Shanghai #813",
    "lat": 31.2304,
    "lng": 121.4737
  },
  {
    "name": "S\u00e3o Paulo #814",
    "lat": -23.5505,
    "lng": -46.6333
  },
  {
    "name": "Mumbai #815",
    "lat": 19.076,
    "lng": 72.8777
  },
  {
    "name": "Beijing #816",
    "lat": 39.9042,
    "lng": 116.4074
  },
  {
    "name": "Cairo #817",
    "lat": 30.0444,
    "lng": 31.2357
  },
  {
    "name": "Dhaka #818",
    "lat": 23.8103,
    "lng": 90.4125
  },
  {
    "name": "Mexico City #819",
    "lat": 19.4326,
    "lng": -99.1332
  },
  {
    "name": "Osaka #820",
    "lat": 34.6937,
    "lng": 135.5023
  },
  {
    "name": "Karachi #821",
    "lat": 24.8607,
    "lng": 67.0011
  },
  {
    "name": "Buenos Aires #822",
    "lat": -34.6037,
    "lng": -58.3816
  },
  {
    "name": "Istanbul #823",
    "lat": 41.0082,
    "lng": 28.9784
  },
  {
    "name": "Kolkata #824",
    "lat": 22.5726,
    "lng": 88.3639
  },
  {
    "name": "Manila #825",
    "lat": 14.5995,
    "lng": 120.9842
  },
  {
    "name": "Lagos #826",
    "lat": 6.5244,
    "lng": 3.3792
  },
  {
    "name": "Rio de Janeiro #827",
    "lat": -22.9068,
    "lng": -43.1729
  },
  {
    "name": "Tianjin #828",
    "lat": 39.3434,
    "lng": 117.3616
  },
  {
    "name": "Kinshasa #829",
    "lat": -4.4419,
    "lng": 15.2663
  },
  {
    "name": "Paris #830",
    "lat": 48.8566,
    "lng": 2.3522
  },
  {
    "name": "Lima #831",
    "lat": -12.0464,
    "lng": -77.0428
  },
  {
    "name": "Bangkok #832",
    "lat": 13.7563,
    "lng": 100.5018
  },
  {
    "name": "London #833",
    "lat": 51.5074,
    "lng": -0.1278
  },
  {
    "name": "Bangalore #834",
    "lat": 12.9716,
    "lng": 77.5946
  },
  {
    "name": "Bogot\u00e1 #835",
    "lat": 4.711,
    "lng": -74.0721
  },
  {
    "name": "Ho Chi Minh City #836",
    "lat": 10.8231,
    "lng": 106.6297
  },
  {
    "name": "Hyderabad #837",
    "lat": 17.385,
    "lng": 78.4867
  },
  {
    "name": "Johannesburg #838",
    "lat": -26.2041,
    "lng": 28.0473
  },
  {
    "name": "Berlin #839",
    "lat": 52.52,
    "lng": 13.405
  },
  {
    "name": "Madrid #840",
    "lat": 40.4168,
    "lng": -3.7038
  },
  {
    "name": "Singapore #841",
    "lat": 1.3521,
    "lng": 103.8198
  },
  {
    "name": "Rome #842",
    "lat": 41.9028,
    "lng": 12.4964
  },
  {
    "name": "Toronto #843",
    "lat": 43.6532,
    "lng": -79.3832
  },
  {
    "name": "Chicago #844",
    "lat": 41.8781,
    "lng": -87.6298
  },
  {
    "name": "Boston #845",
    "lat": 42.3601,
    "lng": -71.0589
  },
  {
    "name": "Sydney #846",
    "lat": -33.8688,
    "lng": 151.2093
  },
  {
    "name": "Melbourne #847",
    "lat": -37.8136,
    "lng": 144.9631
  },
  {
    "name": "Barcelona #848",
    "lat": 41.3851,
    "lng": 2.1734
  },
  {
    "name": "Montreal #849",
    "lat": 45.5017,
    "lng": -73.5673
  },
  {
    "name": "San Francisco #850",
    "lat": 37.7749,
    "lng": -122.4194
  },
  {
    "name": "New York #51 #851",
    "lat": 40.7128,
    "lng": -74.006
  },
  {
    "name": "New York #52 #852",
    "lat": 40.7128,
    "lng": -74.006
  },
  {
    "name": "New York #53 #853",
    "lat": 40.7128,
    "lng": -74.006
  },
  {
    "name": "New York #54 #854",
    "lat": 40.7128,
    "lng": -74.006
  },
  {
    "name": "New York #55 #855",
    "lat": 40.7128,
    "lng": -74.006
  },
  {
    "name": "New York #56 #856",
    "lat": 40.7128,
    "lng": -74.006
  },
  {
    "name": "New York #57 #857",
    "lat": 40.7128,
    "lng": -74.006
  },
  {
    "name": "New York #58 #858",
    "lat": 40.7128,
    "lng": -74.006
  },
  {
    "name": "New York #59 #859",
    "lat": 40.7128,
    "lng": -74.006
  },
  {
    "name": "New York #60 #860",
    "lat": 40.7128,
    "lng": -74.006
  },
  {
    "name": "New York #61 #861",
    "lat": 40.7128,
    "lng": -74.006
  },
  {
    "name": "New York #62 #862",
    "lat": 40.7128,
    "lng": -74.006
  },
  {
    "name": "New York #63 #863",
    "lat": 40.7128,
    "lng": -74.006
  },
  {
    "name": "New York #64 #864",
    "lat": 40.7128,
    "lng": -74.006
  },
  {
    "name": "New York #65 #865",
    "lat": 40.7128,
    "lng": -74.006
  },
  {
    "name": "New York #66 #866",
    "lat": 40.7128,
    "lng": -74.006
  },
  {
    "name": "New York #67 #867",
    "lat": 40.7128,
    "lng": -74.006
  },
  {
    "name": "New York #68 #868",
    "lat": 40.7128,
    "lng": -74.006
  },
  {
    "name": "New York #69 #869",
    "lat": 40.7128,
    "lng": -74.006
  },
  {
    "name": "New York #70 #870",
    "lat": 40.7128,
    "lng": -74.006
  },
  {
    "name": "New York #71 #871",
    "lat": 40.7128,
    "lng": -74.006
  },
  {
    "name": "New York #72 #872",
    "lat": 40.7128,
    "lng": -74.006
  },
  {
    "name": "New York #73 #873",
    "lat": 40.7128,
    "lng": -74.006
  },
  {
    "name": "New York #74 #874",
    "lat": 40.7128,
    "lng": -74.006
  },
  {
    "name": "New York #75 #875",
    "lat": 40.7128,
    "lng": -74.006
  },
  {
    "name": "New York #76 #876",
    "lat": 40.7128,
    "lng": -74.006
  },
  {
    "name": "New York #77 #877",
    "lat": 40.7128,
    "lng": -74.006
  },
  {
    "name": "New York #78 #878",
    "lat": 40.7128,
    "lng": -74.006
  },
  {
    "name": "New York #79 #879",
    "lat": 40.7128,
    "lng": -74.006
  },
  {
    "name": "New York #80 #880",
    "lat": 40.7128,
    "lng": -74.006
  },
  {
    "name": "New York #81 #881",
    "lat": 40.7128,
    "lng": -74.006
  },
  {
    "name": "New York #82 #882",
    "lat": 40.7128,
    "lng": -74.006
  },
  {
    "name": "New York #83 #883",
    "lat": 40.7128,
    "lng": -74.006
  },
  {
    "name": "New York #84 #884",
    "lat": 40.7128,
    "lng": -74.006
  },
  {
    "name": "New York #85 #885",
    "lat": 40.7128,
    "lng": -74.006
  },
  {
    "name": "New York #86 #886",
    "lat": 40.7128,
    "lng": -74.006
  },
  {
    "name": "New York #87 #887",
    "lat": 40.7128,
    "lng": -74.006
  },
  {
    "name": "New York #88 #888",
    "lat": 40.7128,
    "lng": -74.006
  },
  {
    "name": "New York #89 #889",
    "lat": 40.7128,
    "lng": -74.006
  },
  {
    "name": "New York #90 #890",
    "lat": 40.7128,
    "lng": -74.006
  },
  {
    "name": "New York #91 #891",
    "lat": 40.7128,
    "lng": -74.006
  },
  {
    "name": "New York #92 #892",
    "lat": 40.7128,
    "lng": -74.006
  },
  {
    "name": "New York #93 #893",
    "lat": 40.7128,
    "lng": -74.006
  },
  {
    "name": "New York #94 #894",
    "lat": 40.7128,
    "lng": -74.006
  },
  {
    "name": "New York #95 #895",
    "lat": 40.7128,
    "lng": -74.006
  },
  {
    "name": "New York #96 #896",
    "lat": 40.7128,
    "lng": -74.006
  },
  {
    "name": "New York #97 #897",
    "lat": 40.7128,
    "lng": -74.006
  },
  {
    "name": "New York #98 #898",
    "lat": 40.7128,
    "lng": -74.006
  },
  {
    "name": "New York #99 #899",
    "lat": 40.7128,
    "lng": -74.006
  },
  {
    "name": "New York #100 #900",
    "lat": 40.7128,
    "lng": -74.006
  },
  {
    "name": "New York #901",
    "lat": 40.7128,
    "lng": -74.006
  },
  {
    "name": "Los Angeles #902",
    "lat": 34.0522,
    "lng": -118.2437
  },
  {
    "name": "Chicago #903",
    "lat": 41.8781,
    "lng": -87.6298
  },
  {
    "name": "Houston #904",
    "lat": 29.7604,
    "lng": -95.3698
  },
  {
    "name": "Phoenix #905",
    "lat": 33.4484,
    "lng": -112.074
  },
  {
    "name": "Philadelphia #906",
    "lat": 39.9526,
    "lng": -75.1652
  },
  {
    "name": "San Antonio #907",
    "lat": 29.4241,
    "lng": -98.4936
  },
  {
    "name": "San Diego #908",
    "lat": 32.7157,
    "lng": -117.1611
  },
  {
    "name": "Dallas #909",
    "lat": 32.7767,
    "lng": -96.797
  },
  {
    "name": "San Jose #910",
    "lat": 37.3382,
    "lng": -121.8863
  },
  {
    "name": "Tokyo #911",
    "lat": 35.6762,
    "lng": 139.6503
  },
  {
    "name": "Delhi #912",
    "lat": 28.7041,
    "lng": 77.1025
  },
  {
    "name": "Shanghai #913",
    "lat": 31.2304,
    "lng": 121.4737
  },
  {
    "name": "S\u00e3o Paulo #914",
    "lat": -23.5505,
    "lng": -46.6333
  },
  {
    "name": "Mumbai #915",
    "lat": 19.076,
    "lng": 72.8777
  },
  {
    "name": "Beijing #916",
    "lat": 39.9042,
    "lng": 116.4074
  },
  {
    "name": "Cairo #917",
    "lat": 30.0444,
    "lng": 31.2357
  },
  {
    "name": "Dhaka #918",
    "lat": 23.8103,
    "lng": 90.4125
  },
  {
    "name": "Mexico City #919",
    "lat": 19.4326,
    "lng": -99.1332
  },
  {
    "name": "Osaka #920",
    "lat": 34.6937,
    "lng": 135.5023
  },
  {
    "name": "Karachi #921",
    "lat": 24.8607,
    "lng": 67.0011
  },
  {
    "name": "Buenos Aires #922",
    "lat": -34.6037,
    "lng": -58.3816
  },
  {
    "name": "Istanbul #923",
    "lat": 41.0082,
    "lng": 28.9784
  },
  {
    "name": "Kolkata #924",
    "lat": 22.5726,
    "lng": 88.3639
  },
  {
    "name": "Manila #925",
    "lat": 14.5995,
    "lng": 120.9842
  },
  {
    "name": "Lagos #926",
    "lat": 6.5244,
    "lng": 3.3792
  },
  {
    "name": "Rio de Janeiro #927",
    "lat": -22.9068,
    "lng": -43.1729
  },
  {
    "name": "Tianjin #928",
    "lat": 39.3434,
    "lng": 117.3616
  },
  {
    "name": "Kinshasa #929",
    "lat": -4.4419,
    "lng": 15.2663
  },
  {
    "name": "Paris #930",
    "lat": 48.8566,
    "lng": 2.3522
  },
  {
    "name": "Lima #931",
    "lat": -12.0464,
    "lng": -77.0428
  },
  {
    "name": "Bangkok #932",
    "lat": 13.7563,
    "lng": 100.5018
  },
  {
    "name": "London #933",
    "lat": 51.5074,
    "lng": -0.1278
  },
  {
    "name": "Bangalore #934",
    "lat": 12.9716,
    "lng": 77.5946
  },
  {
    "name": "Bogot\u00e1 #935",
    "lat": 4.711,
    "lng": -74.0721
  },
  {
    "name": "Ho Chi Minh City #936",
    "lat": 10.8231,
    "lng": 106.6297
  },
  {
    "name": "Hyderabad #937",
    "lat": 17.385,
    "lng": 78.4867
  },
  {
    "name": "Johannesburg #938",
    "lat": -26.2041,
    "lng": 28.0473
  },
  {
    "name": "Berlin #939",
    "lat": 52.52,
    "lng": 13.405
  },
  {
    "name": "Madrid #940",
    "lat": 40.4168,
    "lng": -3.7038
  },
  {
    "name": "Singapore #941",
    "lat": 1.3521,
    "lng": 103.8198
  },
  {
    "name": "Rome #942",
    "lat": 41.9028,
    "lng": 12.4964
  },
  {
    "name": "Toronto #943",
    "lat": 43.6532,
    "lng": -79.3832
  },
  {
    "name": "Chicago #944",
    "lat": 41.8781,
    "lng": -87.6298
  },
  {
    "name": "Boston #945",
    "lat": 42.3601,
    "lng": -71.0589
  },
  {
    "name": "Sydney #946",
    "lat": -33.8688,
    "lng": 151.2093
  },
  {
    "name": "Melbourne #947",
    "lat": -37.8136,
    "lng": 144.9631
  },
  {
    "name": "Barcelona #948",
    "lat": 41.3851,
    "lng": 2.1734
  },
  {
    "name": "Montreal #949",
    "lat": 45.5017,
    "lng": -73.5673
  },
  {
    "name": "San Francisco #950",
    "lat": 37.7749,
    "lng": -122.4194
  },
  {
    "name": "New York #51 #951",
    "lat": 40.7128,
    "lng": -74.006
  },
  {
    "name": "New York #52 #952",
    "lat": 40.7128,
    "lng": -74.006
  },
  {
    "name": "New York #53 #953",
    "lat": 40.7128,
    "lng": -74.006
  },
  {
    "name": "New York #54 #954",
    "lat": 40.7128,
    "lng": -74.006
  },
  {
    "name": "New York #55 #955",
    "lat": 40.7128,
    "lng": -74.006
  },
  {
    "name": "New York #56 #956",
    "lat": 40.7128,
    "lng": -74.006
  },
  {
    "name": "New York #57 #957",
    "lat": 40.7128,
    "lng": -74.006
  },
  {
    "name": "New York #58 #958",
    "lat": 40.7128,
    "lng": -74.006
  },
  {
    "name": "New York #59 #959",
    "lat": 40.7128,
    "lng": -74.006
  },
  {
    "name": "New York #60 #960",
    "lat": 40.7128,
    "lng": -74.006
  },
  {
    "name": "New York #61 #961",
    "lat": 40.7128,
    "lng": -74.006
  },
  {
    "name": "New York #62 #962",
    "lat": 40.7128,
    "lng": -74.006
  },
  {
    "name": "New York #63 #963",
    "lat": 40.7128,
    "lng": -74.006
  },
  {
    "name": "New York #64 #964",
    "lat": 40.7128,
    "lng": -74.006
  },
  {
    "name": "New York #65 #965",
    "lat": 40.7128,
    "lng": -74.006
  },
  {
    "name": "New York #66 #966",
    "lat": 40.7128,
    "lng": -74.006
  },
  {
    "name": "New York #67 #967",
    "lat": 40.7128,
    "lng": -74.006
  },
  {
    "name": "New York #68 #968",
    "lat": 40.7128,
    "lng": -74.006
  },
  {
    "name": "New York #69 #969",
    "lat": 40.7128,
    "lng": -74.006
  },
  {
    "name": "New York #70 #970",
    "lat": 40.7128,
    "lng": -74.006
  },
  {
    "name": "New York #71 #971",
    "lat": 40.7128,
    "lng": -74.006
  },
  {
    "name": "New York #72 #972",
    "lat": 40.7128,
    "lng": -74.006
  },
  {
    "name": "New York #73 #973",
    "lat": 40.7128,
    "lng": -74.006
  },
  {
    "name": "New York #74 #974",
    "lat": 40.7128,
    "lng": -74.006
  },
  {
    "name": "New York #75 #975",
    "lat": 40.7128,
    "lng": -74.006
  },
  {
    "name": "New York #76 #976",
    "lat": 40.7128,
    "lng": -74.006
  },
  {
    "name": "New York #77 #977",
    "lat": 40.7128,
    "lng": -74.006
  },
  {
    "name": "New York #78 #978",
    "lat": 40.7128,
    "lng": -74.006
  },
  {
    "name": "New York #79 #979",
    "lat": 40.7128,
    "lng": -74.006
  },
  {
    "name": "New York #80 #980",
    "lat": 40.7128,
    "lng": -74.006
  },
  {
    "name": "New York #81 #981",
    "lat": 40.7128,
    "lng": -74.006
  },
  {
    "name": "New York #82 #982",
    "lat": 40.7128,
    "lng": -74.006
  },
  {
    "name": "New York #83 #983",
    "lat": 40.7128,
    "lng": -74.006
  },
  {
    "name": "New York #84 #984",
    "lat": 40.7128,
    "lng": -74.006
  },
  {
    "name": "New York #85 #985",
    "lat": 40.7128,
    "lng": -74.006
  },
  {
    "name": "New York #86 #986",
    "lat": 40.7128,
    "lng": -74.006
  },
  {
    "name": "New York #87 #987",
    "lat": 40.7128,
    "lng": -74.006
  },
  {
    "name": "New York #88 #988",
    "lat": 40.7128,
    "lng": -74.006
  },
  {
    "name": "New York #89 #989",
    "lat": 40.7128,
    "lng": -74.006
  },
  {
    "name": "New York #90 #990",
    "lat": 40.7128,
    "lng": -74.006
  },
  {
    "name": "New York #91 #991",
    "lat": 40.7128,
    "lng": -74.006
  },
  {
    "name": "New York #92 #992",
    "lat": 40.7128,
    "lng": -74.006
  },
  {
    "name": "New York #93 #993",
    "lat": 40.7128,
    "lng": -74.006
  },
  {
    "name": "New York #94 #994",
    "lat": 40.7128,
    "lng": -74.006
  },
  {
    "name": "New York #95 #995",
    "lat": 40.7128,
    "lng": -74.006
  },
  {
    "name": "New York #96 #996",
    "lat": 40.7128,
    "lng": -74.006
  },
  {
    "name": "New York #97 #997",
    "lat": 40.7128,
    "lng": -74.006
  },
  {
    "name": "New York #98 #998",
    "lat": 40.7128,
    "lng": -74.006
  },
  {
    "name": "New York #99 #999",
    "lat": 40.7128,
    "lng": -74.006
  },
  {
    "name": "New York #100 #1000",
    "lat": 40.7128,
    "lng": -74.006
  }
]
