[
  {
    "name": "Aachen",
    "year": 1880,
    "class": "L5",
    "mass": 21.0,
    "lat": 50.775,
    "lng": 6.08333,
    "color": "yellow",
    "city": "Aachen",
    "effect": 2,
    "radius": 1.8
  },
  {
    "name": "Aarhus",
    "year": 1951,
    "class": "H6",
    "mass": 720.0,
    "lat": 56.18333,
    "lng": 10.23333,
    "color": "yellow",
    "city": "Aarhus",
    "effect": 1,
    "radius": 1.4
  },
  {
    "name": "Abee",
    "year": 1952,
    "class": "EH4",
    "mass": 107000.0,
    "lat": 54.21667,
    "lng": -113.0,
    "color": "yellow",
    "city": "Alberta",
    "effect": 10,
    "radius": 5.0
  },
  {
    "name": "Acapulco",
    "year": 1976,
    "class": "Acapulcoite",
    "mass": 1914.0,
    "lat": 16.88333,
    "lng": -99.9,
    "color": "yellow",
    "city": "Acapulco",
    "effect": 5,
    "radius": 3.0
  },
  {
    "name": "Achiras",
    "year": 1902,
    "class": "L6",
    "mass": 780.0,
    "lat": -33.16667,
    "lng": -64.95,
    "color": "yellow",
    "city": "C\u00f3rdoba",
    "effect": 1,
    "radius": 1.4
  },
  {
    "name": "Adhi Kot",
    "year": 1919,
    "class": "EH4",
    "mass": 4239.0,
    "lat": 32.1,
    "lng": 71.8,
    "color": "yellow",
    "city": "Punjab",
    "effect": 5,
    "radius": 3.0
  },
  {
    "name": "Adzhi-Bogdo (stone)",
    "year": 1949,
    "class": "LL3-6",
    "mass": 910.0,
    "lat": 44.83333,
    "lng": 95.16667,
    "color": "yellow",
    "city": "Govi-Altai",
    "effect": 4,
    "radius": 2.6
  },
  {
    "name": "Agen",
    "year": 1814,
    "class": "H5",
    "mass": 30000.0,
    "lat": 44.21667,
    "lng": 0.61667,
    "color": "yellow",
    "city": "Agen",
    "effect": 2,
    "radius": 1.8
  },
  {
    "name": "Aguada",
    "year": 1930,
    "class": "L6",
    "mass": 1620.0,
    "lat": -31.6,
    "lng": -65.23333,
    "color": "yellow",
    "city": "C\u00f3rdoba",
    "effect": 7,
    "radius": 3.8
  },
  {
    "name": "Aguila Blanca",
    "year": 1920,
    "class": "L",
    "mass": 1440.0,
    "lat": -30.86667,
    "lng": -64.55,
    "color": "yellow",
    "city": "Capilla del Monte",
    "effect": 3,
    "radius": 2.2
  },
  {
    "name": "Aioun el Atrouss",
    "year": 1974,
    "class": "Diogenite-pm",
    "mass": 1000.0,
    "lat": 16.39806,
    "lng": -9.57028,
    "color": "yellow",
    "city": "Kubanni",
    "effect": 9,
    "radius": 4.6
  },
  {
    "name": "A\u00efr",
    "year": 1925,
    "class": "L6",
    "mass": 24000.0,
    "lat": 19.08333,
    "lng": 8.38333,
    "color": "yellow",
    "city": "Iferou\u00e2ne",
    "effect": 3,
    "radius": 2.2
  },
  {
    "name": "Akaba",
    "year": 1949,
    "class": "L6",
    "mass": 779.0,
    "lat": 29.51667,
    "lng": 35.05,
    "color": "yellow",
    "city": "Aqaba",
    "effect": 3,
    "radius": 2.2
  },
  {
    "name": "Akbarpur",
    "year": 1838,
    "class": "H4",
    "mass": 1800.0,
    "lat": 29.71667,
    "lng": 77.95,
    "color": "yellow",
    "city": "Uttarakhand",
    "effect": 8,
    "radius": 4.2
  },
  {
    "name": "Akwanga",
    "year": 1959,
    "class": "H",
    "mass": 3000.0,
    "lat": 8.91667,
    "lng": 8.43333,
    "color": "yellow",
    "city": "Akwanga",
    "effect": 6,
    "radius": 3.4
  },
  {
    "name": "Akyumak",
    "year": 1981,
    "class": "Iron, IVA",
    "mass": 50000.0,
    "lat": 39.91667,
    "lng": 42.81667,
    "color": "yellow",
    "city": "Ele\u015fkirt",
    "effect": 1,
    "radius": 1.4
  },
  {
    "name": "Al Rais",
    "year": 1957,
    "class": "CR2-an",
    "mass": 160.0,
    "lat": 24.41667,
    "lng": 39.51667,
    "color": "yellow",
    "city": "Medina",
    "effect": 9,
    "radius": 4.6
  },
  {
    "name": "Al Zarnkh",
    "year": 2001,
    "class": "LL5",
    "mass": 700.0,
    "lat": 13.66033,
    "lng": 28.96,
    "color": "yellow",
    "city": "West Kurdufan State",
    "effect": 1,
    "radius": 1.4
  },
  {
    "name": "Alais",
    "year": 1806,
    "class": "CI1",
    "mass": 6000.0,
    "lat": 44.11667,
    "lng": 4.08333,
    "color": "yellow",
    "city": "Al\u00e8s",
    "effect": 9,
    "radius": 4.6
  },
  {
    "name": "Alberta",
    "year": 1949,
    "class": "L",
    "mass": 625.0,
    "lat": 2.0,
    "lng": 22.66667,
    "color": "yellow",
    "city": "Tshopo",
    "effect": 10,
    "radius": 5.0
  },
  {
    "name": "Alby sur Ch\u00e9ran",
    "year": 2002,
    "class": "Eucrite-mmict",
    "mass": 252.0,
    "lat": 45.82133,
    "lng": 6.01533,
    "color": "yellow",
    "city": "Alby-sur-Ch\u00e9ran",
    "effect": 6,
    "radius": 3.4
  },
  {
    "name": "Aldsworth",
    "year": 1835,
    "class": "LL5",
    "mass": 700.0,
    "lat": 51.78333,
    "lng": -1.78333,
    "color": "yellow",
    "city": "Cotswold District",
    "effect": 10,
    "radius": 5.0
  },
  {
    "name": "Aleppo",
    "year": 1873,
    "class": "L6",
    "mass": 3200.0,
    "lat": 36.23333,
    "lng": 37.13333,
    "color": "yellow",
    "city": "Aleppo",
    "effect": 3,
    "radius": 2.2
  },
  {
    "name": "Alessandria",
    "year": 1860,
    "class": "H5",
    "mass": 908.0,
    "lat": 44.88333,
    "lng": 8.75,
    "color": "yellow",
    "city": "Alessandria",
    "effect": 7,
    "radius": 3.8
  },
  {
    "name": "Alexandrovsky",
    "year": 1900,
    "class": "H4",
    "mass": 9251.0,
    "lat": 50.95,
    "lng": 31.81667,
    "color": "yellow",
    "city": "Chernihiv Oblast",
    "effect": 1,
    "radius": 1.4
  },
  {
    "name": "Alfianello",
    "year": 1883,
    "class": "L6",
    "mass": 228000.0,
    "lat": 45.26667,
    "lng": 10.15,
    "color": "yellow",
    "city": "Alfianello",
    "effect": 2,
    "radius": 1.8
  },
  {
    "name": "Allegan",
    "year": 1899,
    "class": "H5",
    "mass": 32000.0,
    "lat": 42.53333,
    "lng": -85.88333,
    "color": "yellow",
    "city": "Michigan",
    "effect": 9,
    "radius": 4.6
  },
  {
    "name": "Allende",
    "year": 1969,
    "class": "CV3",
    "mass": 2000000.0,
    "lat": 26.96667,
    "lng": -105.31667,
    "color": "yellow",
    "city": "Pueblito de Allende",
    "effect": 2,
    "radius": 1.8
  },
  {
    "name": "Almahata Sitta",
    "year": 2008,
    "class": "Ureilite-an",
    "mass": 3950.0,
    "lat": 20.74575,
    "lng": 32.41275,
    "color": "yellow",
    "city": "Northern State",
    "effect": 10,
    "radius": 5.0
  },
  {
    "name": "Alta'ameem",
    "year": 1977,
    "class": "LL5",
    "mass": 6000.0,
    "lat": 35.27333,
    "lng": 44.21556,
    "color": "yellow",
    "city": "Great Humera",
    "effect": 4,
    "radius": 2.6
  },
  {
    "name": "Ambapur Nagla",
    "year": 1895,
    "class": "H5",
    "mass": 6400.0,
    "lat": 27.66667,
    "lng": 78.25,
    "color": "yellow",
    "city": "Uttar Pradesh",
    "effect": 2,
    "radius": 1.8
  },
  {
    "name": "Andhara",
    "year": 1880,
    "class": "Stone-uncl",
    "mass": 2700.0,
    "lat": 26.58333,
    "lng": 85.56667,
    "color": "yellow",
    "city": "Bihar",
    "effect": 7,
    "radius": 3.8
  },
  {
    "name": "Andover",
    "year": 1898,
    "class": "L6",
    "mass": 3200.0,
    "lat": 44.61667,
    "lng": -70.75,
    "color": "yellow",
    "city": "Andover",
    "effect": 2,
    "radius": 1.8
  },
  {
    "name": "Andreevka",
    "year": 1969,
    "class": "L3",
    "mass": 600.0,
    "lat": 48.7,
    "lng": 37.5,
    "color": "yellow",
    "city": "Kramatorsk",
    "effect": 1,
    "radius": 1.4
  },
  {
    "name": "Andura",
    "year": 1939,
    "class": "H6",
    "mass": 17900.0,
    "lat": 20.88333,
    "lng": 76.86667,
    "color": "yellow",
    "city": "Andura",
    "effect": 3,
    "radius": 2.2
  },
  {
    "name": "Angra dos Reis (stone)",
    "year": 1869,
    "class": "Angrite",
    "mass": 1500.0,
    "lat": -22.96667,
    "lng": -44.31667,
    "color": "yellow",
    "city": "Cunhambebe",
    "effect": 8,
    "radius": 4.2
  },
  {
    "name": "Ankober",
    "year": 1942,
    "class": "H4",
    "mass": 6500.0,
    "lat": 9.53333,
    "lng": 39.71667,
    "color": "yellow",
    "city": "Amhara Region",
    "effect": 4,
    "radius": 2.6
  },
  {
    "name": "Anlong",
    "year": 1971,
    "class": "H5",
    "mass": 2500.0,
    "lat": 25.15,
    "lng": 105.18333,
    "color": "yellow",
    "city": "Longchang",
    "effect": 1,
    "radius": 1.4
  },
  {
    "name": "Aomori",
    "year": 1984,
    "class": "L6",
    "mass": 320.0,
    "lat": 40.81056,
    "lng": 140.78556,
    "color": "yellow",
    "city": "Aomori",
    "effect": 10,
    "radius": 5.0
  },
  {
    "name": "Appley Bridge",
    "year": 1914,
    "class": "LL6",
    "mass": 15000.0,
    "lat": 53.58333,
    "lng": -2.71667,
    "color": "yellow",
    "city": "West Lancashire",
    "effect": 7,
    "radius": 3.8
  },
  {
    "name": "Apt",
    "year": 1803,
    "class": "L6",
    "mass": 3200.0,
    "lat": 43.86667,
    "lng": 5.38333,
    "color": "yellow",
    "city": "Apt",
    "effect": 10,
    "radius": 5.0
  },
  {
    "name": "Arbol Solo",
    "year": 1954,
    "class": "H5",
    "mass": 810.0,
    "lat": -33.0,
    "lng": -66.0,
    "color": "yellow",
    "city": "San Luis",
    "effect": 6,
    "radius": 3.4
  },
  {
    "name": "Archie",
    "year": 1932,
    "class": "H6",
    "mass": 5070.0,
    "lat": 38.5,
    "lng": -94.3,
    "color": "yellow",
    "city": "Missouri",
    "effect": 3,
    "radius": 2.2
  },
  {
    "name": "Arroyo Aguiar",
    "year": 1950,
    "class": "H5",
    "mass": 7450.0,
    "lat": -31.41667,
    "lng": -60.66667,
    "color": "yellow",
    "city": "Santa Fe",
    "effect": 3,
    "radius": 2.2
  },
  {
    "name": "Asco",
    "year": 1805,
    "class": "H6",
    "mass": 41.0,
    "lat": 42.45,
    "lng": 9.03333,
    "color": "yellow",
    "city": "Asco",
    "effect": 7,
    "radius": 3.8
  },
  {
    "name": "Ash Creek",
    "year": 2009,
    "class": "L6",
    "mass": 9500.0,
    "lat": 31.805,
    "lng": -97.01,
    "color": "yellow",
    "city": "Texas",
    "effect": 6,
    "radius": 3.4
  },
  {
    "name": "Ashdon",
    "year": 1923,
    "class": "L6",
    "mass": 1300.0,
    "lat": 52.05,
    "lng": 0.3,
    "color": "yellow",
    "city": "Uttlesford",
    "effect": 1,
    "radius": 1.4
  },
  {
    "name": "Assisi",
    "year": 1886,
    "class": "H5",
    "mass": 2000.0,
    "lat": 43.03333,
    "lng": 12.55,
    "color": "yellow",
    "city": "Assisi",
    "effect": 6,
    "radius": 3.4
  },
  {
    "name": "Atarra",
    "year": 1920,
    "class": "L4",
    "mass": 1280.0,
    "lat": 25.25417,
    "lng": 80.625,
    "color": "yellow",
    "city": "Uttar Pradesh",
    "effect": 9,
    "radius": 4.6
  },
  {
    "name": "Atemajac",
    "year": 1896,
    "class": "L6",
    "mass": 94.2,
    "lat": 20.06667,
    "lng": -103.66667,
    "color": "yellow",
    "city": "Jalisco",
    "effect": 6,
    "radius": 3.4
  },
  {
    "name": "Athens",
    "year": 1933,
    "class": "LL6",
    "mass": 265.0,
    "lat": 34.75,
    "lng": -87.0,
    "color": "yellow",
    "city": "Athens",
    "effect": 7,
    "radius": 3.8
  },
  {
    "name": "Atoka",
    "year": 1945,
    "class": "L6",
    "mass": 1384.2,
    "lat": 34.31667,
    "lng": -96.15,
    "color": "yellow",
    "city": "Oklahoma",
    "effect": 4,
    "radius": 2.6
  },
  {
    "name": "Aubres",
    "year": 1836,
    "class": "Aubrite",
    "mass": 800.0,
    "lat": 44.38333,
    "lng": 5.16667,
    "color": "yellow",
    "city": "Le Vieux Village d'Aubres",
    "effect": 10,
    "radius": 5.0
  },
  {
    "name": "Aumale",
    "year": 1865,
    "class": "L6",
    "mass": 50000.0,
    "lat": 36.16667,
    "lng": 3.66667,
    "color": "yellow",
    "city": "Sour El Ghozlane",
    "effect": 4,
    "radius": 2.6
  },
  {
    "name": "Aumieres",
    "year": 1842,
    "class": "L6",
    "mass": 2000.0,
    "lat": 44.33333,
    "lng": 3.23333,
    "color": "yellow",
    "city": "Massegros Causses Gorges",
    "effect": 5,
    "radius": 3.0
  },
  {
    "name": "Ausson",
    "year": 1858,
    "class": "L5",
    "mass": 50000.0,
    "lat": 43.08333,
    "lng": 0.58333,
    "color": "yellow",
    "city": "Montr\u00e9jeau",
    "effect": 10,
    "radius": 5.0
  },
  {
    "name": "Avanhandava",
    "year": 1952,
    "class": "H4",
    "mass": 9330.0,
    "lat": -21.46028,
    "lng": -49.95083,
    "color": "yellow",
    "city": "Avanhandava",
    "effect": 3,
    "radius": 2.2
  },
  {
    "name": "Avce",
    "year": 1908,
    "class": "Iron, IIAB",
    "mass": 1230.0,
    "lat": 46.0,
    "lng": 13.5,
    "color": "yellow",
    "city": "Barbana",
    "effect": 8,
    "radius": 4.2
  },
  {
    "name": "Avilez",
    "year": 1855,
    "class": "H",
    "mass": 146.0,
    "lat": 25.0,
    "lng": -103.5,
    "color": "yellow",
    "city": "Durango",
    "effect": 1,
    "radius": 1.4
  },
  {
    "name": "Awere",
    "year": 1968,
    "class": "L4",
    "mass": 134.0,
    "lat": 2.71667,
    "lng": 32.83333,
    "color": "yellow",
    "city": "Latek East",
    "effect": 10,
    "radius": 5.0
  },
  {
    "name": "Aztec",
    "year": 1938,
    "class": "L6",
    "mass": 2830.0,
    "lat": 36.8,
    "lng": -108.0,
    "color": "yellow",
    "city": "Aztec",
    "effect": 5,
    "radius": 3.0
  },
  {
    "name": "Bachmut",
    "year": 1814,
    "class": "L6",
    "mass": 18000.0,
    "lat": 48.6,
    "lng": 38.0,
    "color": "yellow",
    "city": "Bakhmut",
    "effect": 2,
    "radius": 1.8
  },
  {
    "name": "Bahjoi",
    "year": 1934,
    "class": "Iron, IAB-sLL",
    "mass": 10322.0,
    "lat": 28.48333,
    "lng": 78.5,
    "color": "yellow",
    "city": "Sambhal",
    "effect": 1,
    "radius": 1.4
  },
  {
    "name": "Bald Mountain",
    "year": 1929,
    "class": "L4",
    "mass": 3700.0,
    "lat": 35.96667,
    "lng": -82.48333,
    "color": "yellow",
    "city": "North Carolina",
    "effect": 9,
    "radius": 4.6
  },
  {
    "name": "Baldwyn",
    "year": 1922,
    "class": "L6",
    "mass": 345.0,
    "lat": 34.5,
    "lng": -88.66667,
    "color": "yellow",
    "city": "Baldwyn",
    "effect": 8,
    "radius": 4.2
  },
  {
    "name": "Bali",
    "year": 1907,
    "class": "CV3",
    "mass": 1000.0,
    "lat": 5.38333,
    "lng": 16.38333,
    "color": "yellow",
    "city": "Nana-Mamb\u00e9r\u00e9",
    "effect": 1,
    "radius": 1.4
  },
  {
    "name": "Ban Rong Du",
    "year": 1993,
    "class": "Iron, ungrouped",
    "mass": 16700.0,
    "lat": 16.66667,
    "lng": 101.18333,
    "color": "yellow",
    "city": "Ban Rai Phathana",
    "effect": 4,
    "radius": 2.6
  },
  {
    "name": "Bandong",
    "year": 1871,
    "class": "LL6",
    "mass": 11500.0,
    "lat": -6.91667,
    "lng": 107.6,
    "color": "yellow",
    "city": "Bandung City",
    "effect": 1,
    "radius": 1.4
  },
  {
    "name": "Bansur",
    "year": 1892,
    "class": "L6",
    "mass": 15000.0,
    "lat": 27.7,
    "lng": 76.33333,
    "color": "yellow",
    "city": "Nangal Bhaosingh",
    "effect": 4,
    "radius": 2.6
  },
  {
    "name": "Banswal",
    "year": 1913,
    "class": "L5",
    "mass": 14.0,
    "lat": 30.4,
    "lng": 78.2,
    "color": "yellow",
    "city": "Uttarakhand",
    "effect": 3,
    "radius": 2.2
  },
  {
    "name": "Banten",
    "year": 1933,
    "class": "CM2",
    "mass": 629.0,
    "lat": -6.33333,
    "lng": 106.0,
    "color": "yellow",
    "city": "Nembol",
    "effect": 10,
    "radius": 5.0
  },
  {
    "name": "Barea",
    "year": 1842,
    "class": "Mesosiderite-A1",
    "mass": 3200.0,
    "lat": 42.38333,
    "lng": -2.5,
    "color": "yellow",
    "city": "Entrena",
    "effect": 8,
    "radius": 4.2
  },
  {
    "name": "Barnaul",
    "year": 1904,
    "class": "H5",
    "mass": 23.2,
    "lat": 52.73333,
    "lng": 84.08333,
    "color": "yellow",
    "city": "Altai Krai",
    "effect": 1,
    "radius": 1.4
  },
  {
    "name": "Barntrup",
    "year": 1886,
    "class": "LL4",
    "mass": 17.0,
    "lat": 52.0,
    "lng": 9.1,
    "color": "yellow",
    "city": "Barntrup",
    "effect": 2,
    "radius": 1.8
  },
  {
    "name": "Baroti",
    "year": 1910,
    "class": "L6",
    "mass": 4500.0,
    "lat": 31.61667,
    "lng": 76.8,
    "color": "yellow",
    "city": "Himachal Pradesh",
    "effect": 4,
    "radius": 2.6
  },
  {
    "name": "Barwell",
    "year": 1965,
    "class": "L5",
    "mass": 44000.0,
    "lat": 52.56528,
    "lng": -1.33972,
    "color": "yellow",
    "city": "Hinckley and Bosworth",
    "effect": 1,
    "radius": 1.4
  },
  {
    "name": "Bassikounou",
    "year": 2006,
    "class": "H5",
    "mass": 29560.0,
    "lat": 15.78333,
    "lng": -5.9,
    "color": "yellow",
    "city": "Bassiknou",
    "effect": 8,
    "radius": 4.2
  },
  {
    "name": "Baszk\u00f3wka",
    "year": 1994,
    "class": "L5",
    "mass": 15500.0,
    "lat": 52.03333,
    "lng": 20.93583,
    "color": "yellow",
    "city": "G\u0142osk\u00f3w",
    "effect": 6,
    "radius": 3.4
  },
  {
    "name": "Bath",
    "year": 1892,
    "class": "H4",
    "mass": 21000.0,
    "lat": 45.41667,
    "lng": -98.31667,
    "color": "yellow",
    "city": "South Dakota",
    "effect": 10,
    "radius": 5.0
  },
  {
    "name": "Bath Furnace",
    "year": 1902,
    "class": "L6",
    "mass": 86000.0,
    "lat": 38.25,
    "lng": -83.75,
    "color": "yellow",
    "city": "Kentucky",
    "effect": 10,
    "radius": 5.0
  },
  {
    "name": "Battle Mountain",
    "year": 2012,
    "class": "L6",
    "mass": 2900.0,
    "lat": 40.66813,
    "lng": -117.18913,
    "color": "yellow",
    "city": "Nevada",
    "effect": 8,
    "radius": 4.2
  },
  {
    "name": "Bawku",
    "year": 1989,
    "class": "LL5",
    "mass": 1557.0,
    "lat": 11.08333,
    "lng": -0.18333,
    "color": "yellow",
    "city": "Unknown",
    "effect": 2,
    "radius": 1.8
  },
  {
    "name": "Baxter",
    "year": 1916,
    "class": "L6",
    "mass": 611.0,
    "lat": 36.75,
    "lng": -93.5,
    "color": "yellow",
    "city": "Missouri",
    "effect": 8,
    "radius": 4.2
  },
  {
    "name": "Beardsley",
    "year": 1929,
    "class": "H5",
    "mass": 16000.0,
    "lat": 39.8,
    "lng": -101.2,
    "color": "yellow",
    "city": "Kansas",
    "effect": 3,
    "radius": 2.2
  },
  {
    "name": "Beaver Creek",
    "year": 1893,
    "class": "H5",
    "mass": 14000.0,
    "lat": 51.16667,
    "lng": -117.33333,
    "color": "yellow",
    "city": "Area A (Kicking Horse/Kinbasket Lake)",
    "effect": 7,
    "radius": 3.8
  },
  {
    "name": "Beddgelert",
    "year": 1949,
    "class": "H5",
    "mass": 794.0,
    "lat": 53.01667,
    "lng": -4.1,
    "color": "yellow",
    "city": "Beddgelert",
    "effect": 6,
    "radius": 3.4
  },
  {
    "name": "Bells",
    "year": 1961,
    "class": "C2-ung",
    "mass": 375.0,
    "lat": 33.6,
    "lng": -96.46667,
    "color": "yellow",
    "city": "Texas",
    "effect": 8,
    "radius": 4.2
  },
  {
    "name": "Benguerir",
    "year": 2004,
    "class": "LL6",
    "mass": 25000.0,
    "lat": 32.25,
    "lng": -8.15,
    "color": "yellow",
    "city": "El Fokra",
    "effect": 4,
    "radius": 2.6
  },
  {
    "name": "Beni M'hira",
    "year": 2001,
    "class": "L6",
    "mass": 19000.0,
    "lat": 32.86667,
    "lng": 10.8,
    "color": "yellow",
    "city": "Tataouine",
    "effect": 2,
    "radius": 1.8
  },
  {
    "name": "Benld",
    "year": 1938,
    "class": "H6",
    "mass": 1770.5,
    "lat": 39.08333,
    "lng": -89.15,
    "color": "yellow",
    "city": "Illinois",
    "effect": 4,
    "radius": 2.6
  },
  {
    "name": "Benoni",
    "year": 1943,
    "class": "H6",
    "mass": 3880.0,
    "lat": -26.16667,
    "lng": 28.41667,
    "color": "yellow",
    "city": "Gauteng",
    "effect": 2,
    "radius": 1.8
  },
  {
    "name": "Bensour",
    "year": 2002,
    "class": "LL6",
    "mass": 45000.0,
    "lat": 30.0,
    "lng": -7.0,
    "color": "yellow",
    "city": "Foum Zguid",
    "effect": 10,
    "radius": 5.0
  },
  {
    "name": "Benton",
    "year": 1949,
    "class": "LL6",
    "mass": 2840.0,
    "lat": 45.95,
    "lng": -67.55,
    "color": "yellow",
    "city": "New Brunswick",
    "effect": 7,
    "radius": 3.8
  },
  {
    "name": "Berduc",
    "year": 2008,
    "class": "L6",
    "mass": 270.0,
    "lat": -31.91,
    "lng": -58.32833,
    "color": "yellow",
    "city": "Entre R\u00edos Province",
    "effect": 2,
    "radius": 1.8
  },
  {
    "name": "B\u00e9r\u00e9ba",
    "year": 1924,
    "class": "Eucrite-mmict",
    "mass": 18000.0,
    "lat": 11.65,
    "lng": -3.65,
    "color": "yellow",
    "city": "Unknown",
    "effect": 9,
    "radius": 4.6
  },
  {
    "name": "Berlanguillas",
    "year": 1811,
    "class": "L6",
    "mass": 1440.0,
    "lat": 41.68333,
    "lng": -3.8,
    "color": "yellow",
    "city": "Gumiel de Mercado",
    "effect": 2,
    "radius": 1.8
  },
  {
    "name": "Berthoud",
    "year": 2004,
    "class": "Eucrite-mmict",
    "mass": 960.0,
    "lat": 40.30583,
    "lng": -105.02325,
    "color": "yellow",
    "city": "Berthoud",
    "effect": 1,
    "radius": 1.4
  },
  {
    "name": "Bethlehem",
    "year": 1859,
    "class": "H",
    "mass": 13.9,
    "lat": 42.53333,
    "lng": -73.83333,
    "color": "yellow",
    "city": "Town of Bethlehem",
    "effect": 4,
    "radius": 2.6
  },
  {
    "name": "Beuste",
    "year": 1859,
    "class": "L5",
    "mass": 2000.0,
    "lat": 43.21667,
    "lng": -0.23333,
    "color": "yellow",
    "city": "Beuste",
    "effect": 3,
    "radius": 2.2
  },
  {
    "name": "Beyrout",
    "year": 1921,
    "class": "LL3.8",
    "mass": 1100.0,
    "lat": 33.88333,
    "lng": 35.5,
    "color": "yellow",
    "city": "Burj Abi Haidar",
    "effect": 2,
    "radius": 1.8
  },
  {
    "name": "Bhagur",
    "year": 1877,
    "class": "L6",
    "mass": 18.0,
    "lat": 20.88333,
    "lng": 74.83333,
    "color": "yellow",
    "city": "Saundane",
    "effect": 5,
    "radius": 3.0
  },
  {
    "name": "Bhawad",
    "year": 2002,
    "class": "LL6",
    "mass": 678.0,
    "lat": 26.50833,
    "lng": 73.11528,
    "color": "yellow",
    "city": "Bhawad",
    "effect": 10,
    "radius": 5.0
  },
  {
    "name": "Bherai",
    "year": 1893,
    "class": "L6",
    "mass": 100.0,
    "lat": 20.83333,
    "lng": 71.46667,
    "color": "yellow",
    "city": "Unknown",
    "effect": 8,
    "radius": 4.2
  },
  {
    "name": "Bhola",
    "year": 1940,
    "class": "LL3-6",
    "mass": 1047.0,
    "lat": 22.68333,
    "lng": 90.65,
    "color": "yellow",
    "city": "Bhola",
    "effect": 6,
    "radius": 3.4
  },
  {
    "name": "Bholghati",
    "year": 1905,
    "class": "Howardite",
    "mass": 2500.0,
    "lat": 22.08333,
    "lng": 86.9,
    "color": "yellow",
    "city": "Odisha",
    "effect": 2,
    "radius": 1.8
  },
  {
    "name": "Bialystok",
    "year": 1827,
    "class": "Eucrite-pmict",
    "mass": 4000.0,
    "lat": 53.1,
    "lng": 23.2,
    "color": "yellow",
    "city": "Bia\u0142ystok",
    "effect": 1,
    "radius": 1.4
  },
  {
    "name": "Bielokrynitschie",
    "year": 1887,
    "class": "H4",
    "mass": 1900.0,
    "lat": 50.13333,
    "lng": 27.16667,
    "color": "yellow",
    "city": "Bilokrynychchia",
    "effect": 5,
    "radius": 3.0
  },
  {
    "name": "Bilanga",
    "year": 1999,
    "class": "Diogenite",
    "mass": 25000.0,
    "lat": 12.45,
    "lng": -0.08333,
    "color": "yellow",
    "city": "Bilanga-Yanga-Peulh",
    "effect": 5,
    "radius": 3.0
  },
  {
    "name": "Binningup",
    "year": 1984,
    "class": "H5",
    "mass": 488.1,
    "lat": -33.15639,
    "lng": 115.67639,
    "color": "yellow",
    "city": "Western Australia",
    "effect": 8,
    "radius": 4.2
  },
  {
    "name": "Birni N'konni",
    "year": 1923,
    "class": "H4",
    "mass": 560.0,
    "lat": 13.76667,
    "lng": 5.3,
    "color": "yellow",
    "city": "Araba",
    "effect": 10,
    "radius": 5.0
  },
  {
    "name": "Bishopville",
    "year": 1843,
    "class": "Aubrite",
    "mass": 6000.0,
    "lat": 34.16667,
    "lng": -80.28333,
    "color": "yellow",
    "city": "South Carolina",
    "effect": 1,
    "radius": 1.4
  },
  {
    "name": "Bishunpur",
    "year": 1895,
    "class": "LL3.15",
    "mass": 1039.0,
    "lat": 25.38333,
    "lng": 82.6,
    "color": "yellow",
    "city": "Bhadohi",
    "effect": 10,
    "radius": 5.0
  },
  {
    "name": "Bjurb\u00f6le",
    "year": 1899,
    "class": "L/LL4",
    "mass": 330000.0,
    "lat": 60.4,
    "lng": 25.8,
    "color": "yellow",
    "city": "Porvoo",
    "effect": 4,
    "radius": 2.6
  },
  {
    "name": "Black Moshannan Park",
    "year": 1941,
    "class": "L5",
    "mass": 705.0,
    "lat": 40.91667,
    "lng": -78.08333,
    "color": "yellow",
    "city": "Rush Township",
    "effect": 7,
    "radius": 3.8
  },
  {
    "name": "Blackwell",
    "year": 1906,
    "class": "L5",
    "mass": 2381.0,
    "lat": 36.83333,
    "lng": -97.33333,
    "color": "yellow",
    "city": "Oklahoma",
    "effect": 7,
    "radius": 3.8
  },
  {
    "name": "Blanket",
    "year": 1909,
    "class": "L6",
    "mass": 5100.0,
    "lat": 31.83333,
    "lng": -98.83333,
    "color": "yellow",
    "city": "Texas",
    "effect": 6,
    "radius": 3.4
  },
  {
    "name": "Blansko",
    "year": 1833,
    "class": "H6",
    "mass": 470.0,
    "lat": 49.36667,
    "lng": 16.63333,
    "color": "yellow",
    "city": "Blansko",
    "effect": 10,
    "radius": 5.0
  },
  {
    "name": "Bloomington",
    "year": 1938,
    "class": "LL6",
    "mass": 67.8,
    "lat": 40.48,
    "lng": -89.00417,
    "color": "yellow",
    "city": "Bloomington",
    "effect": 2,
    "radius": 1.8
  },
  {
    "name": "Bo Xian",
    "year": 1977,
    "class": "LL3.9",
    "mass": 7500.0,
    "lat": 33.83333,
    "lng": 115.83333,
    "color": "yellow",
    "city": "Qiaocheng District",
    "effect": 8,
    "radius": 4.2
  },
  {
    "name": "Bocas",
    "year": 1804,
    "class": "L6",
    "mass": 56.0,
    "lat": 23.0,
    "lng": -102.0,
    "color": "yellow",
    "city": "San Luis Potos\u00ed",
    "effect": 2,
    "radius": 1.8
  },
  {
    "name": "Bogou",
    "year": 1962,
    "class": "Iron, IAB-MG",
    "mass": 8800.0,
    "lat": 12.5,
    "lng": 0.7,
    "color": "yellow",
    "city": "Lafya",
    "effect": 5,
    "radius": 3.0
  },
  {
    "name": "Boguslavka",
    "year": 1916,
    "class": "Iron, IIAB",
    "mass": 256000.0,
    "lat": 44.55,
    "lng": 131.63333,
    "color": "yellow",
    "city": "Primorsky Krai",
    "effect": 6,
    "radius": 3.4
  },
  {
    "name": "Borgo San Donino",
    "year": 1808,
    "class": "LL6",
    "mass": 1676.0,
    "lat": 44.86667,
    "lng": 10.05,
    "color": "yellow",
    "city": "Fidenza",
    "effect": 4,
    "radius": 2.6
  },
  {
    "name": "Bori",
    "year": 1894,
    "class": "L6",
    "mass": 8600.0,
    "lat": 21.95,
    "lng": 78.03333,
    "color": "yellow",
    "city": "Lakhapur Khurd",
    "effect": 9,
    "radius": 4.6
  },
  {
    "name": "Boriskino",
    "year": 1930,
    "class": "CM2",
    "mass": 1342.0,
    "lat": 54.23333,
    "lng": 52.48333,
    "color": "yellow",
    "city": "\u0421\u0442\u0430\u0440\u043e\u0431\u043e\u0440\u0438\u0441\u043a\u0438\u043d\u043e",
    "effect": 1,
    "radius": 1.4
  },
  {
    "name": "Borkut",
    "year": 1852,
    "class": "L5",
    "mass": 7000.0,
    "lat": 48.15,
    "lng": 24.28333,
    "color": "yellow",
    "city": "Kvasy",
    "effect": 4,
    "radius": 2.6
  },
  {
    "name": "Borodino",
    "year": 1812,
    "class": "H5",
    "mass": 500.0,
    "lat": 55.46667,
    "lng": 35.86667,
    "color": "yellow",
    "city": "Moscow Oblast",
    "effect": 10,
    "radius": 5.0
  },
  {
    "name": "Botschetschki",
    "year": 1823,
    "class": "L4",
    "mass": 614.0,
    "lat": 51.33333,
    "lng": 33.88333,
    "color": "yellow",
    "city": "Putyvl",
    "effect": 4,
    "radius": 2.6
  },
  {
    "name": "Boumdeid (2003)",
    "year": 2003,
    "class": "L6",
    "mass": 190.0,
    "lat": 17.71067,
    "lng": -11.3715,
    "color": "yellow",
    "city": "Assaba",
    "effect": 7,
    "radius": 3.8
  },
  {
    "name": "Boumdeid (2011)",
    "year": 2011,
    "class": "L6",
    "mass": 3599.0,
    "lat": 17.17493,
    "lng": -11.34133,
    "color": "yellow",
    "city": "Assaba",
    "effect": 1,
    "radius": 1.4
  },
  {
    "name": "Bovedy",
    "year": 1969,
    "class": "L3",
    "mass": 5460.0,
    "lat": 54.56667,
    "lng": -6.33333,
    "color": "yellow",
    "city": "Northern Ireland",
    "effect": 9,
    "radius": 4.6
  },
  {
    "name": "Bradford Woods",
    "year": 1886,
    "class": "L",
    "mass": 762.0,
    "lat": 40.5,
    "lng": -80.08333,
    "color": "yellow",
    "city": "Neville Township",
    "effect": 1,
    "radius": 1.4
  },
  {
    "name": "Braunau",
    "year": 1847,
    "class": "Iron, IIAB",
    "mass": 39000.0,
    "lat": 50.6,
    "lng": 16.3,
    "color": "yellow",
    "city": "Hejtm\u00e1nkovice",
    "effect": 1,
    "radius": 1.4
  },
  {
    "name": "Breitscheid",
    "year": 1956,
    "class": "H5",
    "mass": 1500.0,
    "lat": 50.66694,
    "lng": 8.18361,
    "color": "yellow",
    "city": "Gusternhain",
    "effect": 1,
    "radius": 1.4
  },
  {
    "name": "Bremerv\u00f6rde",
    "year": 1855,
    "class": "H/L3.9",
    "mass": 7250.0,
    "lat": 53.4,
    "lng": 9.1,
    "color": "yellow",
    "city": "Sandbostel",
    "effect": 7,
    "radius": 3.8
  },
  {
    "name": "Brient",
    "year": 1933,
    "class": "Eucrite-pmict",
    "mass": 219.0,
    "lat": 52.13333,
    "lng": 59.31667,
    "color": "yellow",
    "city": "Briyent",
    "effect": 4,
    "radius": 2.6
  },
  {
    "name": "Bruderheim",
    "year": 1960,
    "class": "L6",
    "mass": 303000.0,
    "lat": 53.9,
    "lng": -112.88333,
    "color": "yellow",
    "city": "Alberta",
    "effect": 2,
    "radius": 1.8
  },
  {
    "name": "Bukhara",
    "year": 2001,
    "class": "CV3",
    "mass": 5300.0,
    "lat": 39.77978,
    "lng": 64.60035,
    "color": "yellow",
    "city": "Akchamamad",
    "effect": 8,
    "radius": 4.2
  },
  {
    "name": "Bunburra Rockhole",
    "year": 2007,
    "class": "Eucrite",
    "mass": 324.0,
    "lat": -31.35,
    "lng": 129.19,
    "color": "yellow",
    "city": "South Australia",
    "effect": 2,
    "radius": 1.8
  },
  {
    "name": "Bununu",
    "year": 1942,
    "class": "Howardite",
    "mass": 357.0,
    "lat": 10.01667,
    "lng": 9.58333,
    "color": "yellow",
    "city": "Bununu East",
    "effect": 5,
    "radius": 3.0
  },
  {
    "name": "Bur-Gheluai",
    "year": 1919,
    "class": "H5",
    "mass": 120000.0,
    "lat": 5.0,
    "lng": 48.0,
    "color": "yellow",
    "city": "Caad",
    "effect": 6,
    "radius": 3.4
  },
  {
    "name": "Burnwell",
    "year": 1990,
    "class": "H4-an",
    "mass": 1504.0,
    "lat": 37.62194,
    "lng": -82.23722,
    "color": "yellow",
    "city": "Kentucky",
    "effect": 10,
    "radius": 5.0
  },
  {
    "name": "Bursa",
    "year": 1946,
    "class": "L6",
    "mass": 25000.0,
    "lat": 40.2,
    "lng": 29.23333,
    "color": "yellow",
    "city": "Kestel",
    "effect": 8,
    "radius": 4.2
  },
  {
    "name": "Buschhof",
    "year": 1863,
    "class": "L6",
    "mass": 5000.0,
    "lat": 46.45,
    "lng": 25.78333,
    "color": "yellow",
    "city": "G\u00e2rciu",
    "effect": 4,
    "radius": 2.6
  },
  {
    "name": "Bustee",
    "year": 1852,
    "class": "Aubrite",
    "mass": 1500.0,
    "lat": 26.78333,
    "lng": 82.83333,
    "color": "yellow",
    "city": "Basti",
    "effect": 3,
    "radius": 2.2
  },
  {
    "name": "Butsura",
    "year": 1861,
    "class": "H6",
    "mass": 29000.0,
    "lat": 27.08333,
    "lng": 84.08333,
    "color": "yellow",
    "city": "Bagaha",
    "effect": 1,
    "radius": 1.4
  },
  {
    "name": "Buzzard Coulee",
    "year": 2008,
    "class": "H4",
    "mass": 41000.0,
    "lat": 52.996,
    "lng": -109.84817,
    "color": "yellow",
    "city": "Saskatchewan",
    "effect": 7,
    "radius": 3.8
  },
  {
    "name": "Cabezo de Mayo",
    "year": 1870,
    "class": "L/LL6",
    "mass": 25000.0,
    "lat": 37.98333,
    "lng": -1.16667,
    "color": "yellow",
    "city": "Murcia",
    "effect": 2,
    "radius": 1.8
  },
  {
    "name": "Cabin Creek",
    "year": 1886,
    "class": "Iron, IIIAB",
    "mass": 48500.0,
    "lat": 35.5,
    "lng": -93.5,
    "color": "yellow",
    "city": "Arkansas",
    "effect": 10,
    "radius": 5.0
  },
  {
    "name": "Cacak",
    "year": 1919,
    "class": "OC",
    "mass": 212.0,
    "lat": 43.83889,
    "lng": 20.33333,
    "color": "yellow",
    "city": "Atenica",
    "effect": 3,
    "radius": 2.2
  },
  {
    "name": "Cali",
    "year": 2007,
    "class": "H/L4",
    "mass": 478.0,
    "lat": 3.405,
    "lng": -76.51,
    "color": "yellow",
    "city": "Cali",
    "effect": 1,
    "radius": 1.4
  },
  {
    "name": "Calivo",
    "year": 1916,
    "class": "Stone-uncl",
    "mass": 2400.0,
    "lat": 11.75,
    "lng": 122.33333,
    "color": "yellow",
    "city": "Numancia",
    "effect": 10,
    "radius": 5.0
  },
  {
    "name": "Campos Sales",
    "year": 1991,
    "class": "L5",
    "mass": 23680.0,
    "lat": -7.03333,
    "lng": -40.16667,
    "color": "yellow",
    "city": "Salitre",
    "effect": 5,
    "radius": 3.0
  },
  {
    "name": "\u00c7anakkale",
    "year": 1964,
    "class": "L6",
    "mass": 4000.0,
    "lat": 39.8,
    "lng": 26.6,
    "color": "yellow",
    "city": "Bayrami\u00e7",
    "effect": 9,
    "radius": 4.6
  },
  {
    "name": "Ca\u00f1ellas",
    "year": 1861,
    "class": "H4",
    "mass": 945.0,
    "lat": 41.25,
    "lng": 1.66667,
    "color": "yellow",
    "city": "Vilanova i la Geltr\u00fa",
    "effect": 7,
    "radius": 3.8
  },
  {
    "name": "Cangas de Onis",
    "year": 1866,
    "class": "H5",
    "mass": 34000.0,
    "lat": 43.38333,
    "lng": -5.15,
    "color": "yellow",
    "city": "Cangas de On\u00eds",
    "effect": 8,
    "radius": 4.2
  },
  {
    "name": "Canon City",
    "year": 1973,
    "class": "H6",
    "mass": 1400.0,
    "lat": 38.47028,
    "lng": -105.24139,
    "color": "yellow",
    "city": "Ca\u00f1on City",
    "effect": 3,
    "radius": 2.2
  },
  {
    "name": "Cape Girardeau",
    "year": 1846,
    "class": "H6",
    "mass": 2300.0,
    "lat": 37.26667,
    "lng": -89.58333,
    "color": "yellow",
    "city": "Missouri",
    "effect": 10,
    "radius": 5.0
  },
  {
    "name": "Capilla del Monte",
    "year": 1934,
    "class": "H6",
    "mass": 750.0,
    "lat": -30.88333,
    "lng": -64.55,
    "color": "yellow",
    "city": "C\u00f3rdoba",
    "effect": 5,
    "radius": 3.0
  },
  {
    "name": "Carancas",
    "year": 2007,
    "class": "H4-5",
    "mass": 342.0,
    "lat": -16.66444,
    "lng": -69.04389,
    "color": "yellow",
    "city": "Desaguadero",
    "effect": 10,
    "radius": 5.0
  },
  {
    "name": "Caratash",
    "year": 1902,
    "class": "LL6",
    "mass": 8.0,
    "lat": 38.5,
    "lng": 27.0,
    "color": "yellow",
    "city": "\u00c7i\u011fli",
    "effect": 4,
    "radius": 2.6
  },
  {
    "name": "Castalia",
    "year": 1874,
    "class": "H5",
    "mass": 7300.0,
    "lat": 36.08333,
    "lng": -78.06667,
    "color": "yellow",
    "city": "Castalia",
    "effect": 5,
    "radius": 3.0
  },
  {
    "name": "Castine",
    "year": 1848,
    "class": "L6",
    "mass": 94.0,
    "lat": 44.38333,
    "lng": -68.75,
    "color": "yellow",
    "city": "Brooksville",
    "effect": 7,
    "radius": 3.8
  },
  {
    "name": "Caswell County",
    "year": 1810,
    "class": "OC",
    "mass": 1360.0,
    "lat": 36.5,
    "lng": -79.25,
    "color": "yellow",
    "city": "North Carolina",
    "effect": 6,
    "radius": 3.4
  },
  {
    "name": "Ceniceros",
    "year": 1988,
    "class": "L3.7",
    "mass": 1025.0,
    "lat": 26.46667,
    "lng": -105.23333,
    "color": "yellow",
    "city": "Durango",
    "effect": 2,
    "radius": 1.8
  },
  {
    "name": "Centerville",
    "year": 1956,
    "class": "H5",
    "mass": 45.6,
    "lat": 43.2,
    "lng": -96.91667,
    "color": "yellow",
    "city": "South Dakota",
    "effect": 9,
    "radius": 4.6
  },
  {
    "name": "Cereseto",
    "year": 1840,
    "class": "H5",
    "mass": 6460.0,
    "lat": 45.08333,
    "lng": 8.3,
    "color": "yellow",
    "city": "Ponzano Monferrato",
    "effect": 5,
    "radius": 3.0
  },
  {
    "name": "Chadong",
    "year": 1998,
    "class": "L6",
    "mass": 3700.0,
    "lat": 28.53333,
    "lng": 109.31667,
    "color": "yellow",
    "city": "Tuanjie",
    "effect": 4,
    "radius": 2.6
  },
  {
    "name": "Chail",
    "year": 1814,
    "class": "H6",
    "mass": 0.5,
    "lat": 25.36667,
    "lng": 81.66667,
    "color": "yellow",
    "city": "Uttar Pradesh",
    "effect": 5,
    "radius": 3.0
  },
  {
    "name": "Chainpur",
    "year": 1907,
    "class": "LL3.4",
    "mass": 8200.0,
    "lat": 25.85,
    "lng": 83.48333,
    "color": "yellow",
    "city": "Mau",
    "effect": 6,
    "radius": 3.4
  },
  {
    "name": "Chajari",
    "year": 1933,
    "class": "L5",
    "mass": 18300.0,
    "lat": -30.78333,
    "lng": -58.05,
    "color": "yellow",
    "city": "Chajar\u00ed",
    "effect": 5,
    "radius": 3.0
  },
  {
    "name": "Chandakapur",
    "year": 1838,
    "class": "L5",
    "mass": 8800.0,
    "lat": 20.26667,
    "lng": 76.01667,
    "color": "yellow",
    "city": "Borgaon Math",
    "effect": 10,
    "radius": 5.0
  },
  {
    "name": "Chandpur",
    "year": 1885,
    "class": "L6",
    "mass": 1100.0,
    "lat": 27.28333,
    "lng": 79.05,
    "color": "yellow",
    "city": "Mainpuri",
    "effect": 2,
    "radius": 1.8
  },
  {
    "name": "Changde",
    "year": 1977,
    "class": "H5",
    "mass": 1810.0,
    "lat": 29.08333,
    "lng": 111.75,
    "color": "yellow",
    "city": "Wuling District",
    "effect": 5,
    "radius": 3.0
  },
  {
    "name": "Chantonnay",
    "year": 1812,
    "class": "L6",
    "mass": 31500.0,
    "lat": 46.68333,
    "lng": 1.05,
    "color": "yellow",
    "city": "Pouligny-Saint-Pierre",
    "effect": 3,
    "radius": 2.2
  },
  {
    "name": "Charlotte",
    "year": 1835,
    "class": "Iron, IVA",
    "mass": 4300.0,
    "lat": 36.16667,
    "lng": -87.33333,
    "color": "yellow",
    "city": "Charlotte",
    "effect": 2,
    "radius": 1.8
  },
  {
    "name": "Charsonville",
    "year": 1810,
    "class": "H6",
    "mass": 27000.0,
    "lat": 47.93333,
    "lng": 1.56667,
    "color": "yellow",
    "city": "Charsonville",
    "effect": 3,
    "radius": 2.2
  },
  {
    "name": "Charwallas",
    "year": 1834,
    "class": "H6",
    "mass": 12000.0,
    "lat": 29.48333,
    "lng": 75.5,
    "color": "yellow",
    "city": "Dhangar",
    "effect": 9,
    "radius": 4.6
  },
  {
    "name": "Chassigny",
    "year": 1815,
    "class": "Martian (chassignite)",
    "mass": 4000.0,
    "lat": 47.71667,
    "lng": 5.36667,
    "color": "yellow",
    "city": "Chassigny",
    "effect": 3,
    "radius": 2.2
  },
  {
    "name": "Ch\u00e2teau-Renard",
    "year": 1841,
    "class": "L6",
    "mass": 30000.0,
    "lat": 47.93333,
    "lng": 2.91667,
    "color": "yellow",
    "city": "Ch\u00e2teau-Renard",
    "effect": 7,
    "radius": 3.8
  },
  {
    "name": "Chaves",
    "year": 1925,
    "class": "Howardite",
    "mass": 2945.0,
    "lat": 41.93333,
    "lng": -7.46667,
    "color": "yellow",
    "city": "Ver\u00edn",
    "effect": 10,
    "radius": 5.0
  },
  {
    "name": "Chela",
    "year": 1988,
    "class": "H4",
    "mass": 2936.0,
    "lat": -3.66667,
    "lng": 32.5,
    "color": "yellow",
    "city": "Kalagwa",
    "effect": 2,
    "radius": 1.8
  },
  {
    "name": "Chelyabinsk",
    "year": 2013,
    "class": "LL5",
    "mass": 100000.0,
    "lat": 54.81667,
    "lng": 61.11667,
    "color": "yellow",
    "city": "Chelyabinsk Oblast",
    "effect": 8,
    "radius": 4.2
  },
  {
    "name": "Chergach ",
    "year": 2007,
    "class": "H5",
    "mass": 100000.0,
    "lat": 23.69639,
    "lng": -5.01472,
    "color": "yellow",
    "city": "Unknown",
    "effect": 7,
    "radius": 3.8
  },
  {
    "name": "Chernyi Bor",
    "year": 1964,
    "class": "H4",
    "mass": 6000.0,
    "lat": 53.7,
    "lng": 30.1,
    "color": "yellow",
    "city": "\u0417\u0430\u0432\u043e\u0434\u0441\u043a\u0430\u0441\u043b\u0430\u0431\u043e\u0434\u0441\u043a\u0456 \u0441\u0435\u043b\u044c\u0441\u043a\u0456 \u0421\u0430\u0432\u0435\u0442",
    "effect": 7,
    "radius": 3.8
  },
  {
    "name": "Cherokee Springs",
    "year": 1933,
    "class": "LL6",
    "mass": 8400.0,
    "lat": 35.03333,
    "lng": -81.88333,
    "color": "yellow",
    "city": "South Carolina",
    "effect": 9,
    "radius": 4.6
  },
  {
    "name": "Chervettaz",
    "year": 1901,
    "class": "L5",
    "mass": 705.0,
    "lat": 46.55,
    "lng": 6.81667,
    "color": "yellow",
    "city": "Oron",
    "effect": 1,
    "radius": 1.4
  },
  {
    "name": "Chervony Kut",
    "year": 1939,
    "class": "Eucrite-mmict",
    "mass": 1700.0,
    "lat": 50.83333,
    "lng": 34.0,
    "color": "yellow",
    "city": "Kholodnyi Yar",
    "effect": 4,
    "radius": 2.6
  },
  {
    "name": "Chetrinahatti",
    "year": 1880,
    "class": "Stone-uncl",
    "mass": 72.0,
    "lat": 14.5,
    "lng": 76.5,
    "color": "yellow",
    "city": "\u0cae\u0cb2\u0ccd\u0cb2\u0cc2\u0cb0\u0cb9\u0c9f\u0ccd\u0c9f\u0cbf",
    "effect": 5,
    "radius": 3.0
  },
  {
    "name": "Chiang Khan",
    "year": 1981,
    "class": "H6",
    "mass": 367.0,
    "lat": 17.9,
    "lng": 101.63333,
    "color": "yellow",
    "city": "Chouansavan",
    "effect": 4,
    "radius": 2.6
  },
  {
    "name": "Chicora",
    "year": 1938,
    "class": "LL6",
    "mass": 303.0,
    "lat": 40.93333,
    "lng": -79.73333,
    "color": "yellow",
    "city": "Donegal Township",
    "effect": 6,
    "radius": 3.4
  },
  {
    "name": "Chisenga",
    "year": 1988,
    "class": "Iron, IIIAB",
    "mass": 3920.0,
    "lat": -10.05944,
    "lng": 33.395,
    "color": "yellow",
    "city": "Chitipa",
    "effect": 10,
    "radius": 5.0
  },
  {
    "name": "Chitenay",
    "year": 1978,
    "class": "L6",
    "mass": 4000.0,
    "lat": 47.47083,
    "lng": 0.97667,
    "color": "yellow",
    "city": "Saint-Ouen-les-Vignes",
    "effect": 4,
    "radius": 2.6
  },
  {
    "name": "Cilimus",
    "year": 1979,
    "class": "L5",
    "mass": 1600.0,
    "lat": -6.95,
    "lng": 108.1,
    "color": "yellow",
    "city": "Pawenang",
    "effect": 3,
    "radius": 2.2
  },
  {
    "name": "Claxton",
    "year": 1984,
    "class": "L6",
    "mass": 1455.0,
    "lat": 32.1025,
    "lng": -81.87278,
    "color": "yellow",
    "city": "Georgia",
    "effect": 8,
    "radius": 4.2
  },
  {
    "name": "Colby (Wisconsin)",
    "year": 1917,
    "class": "L6",
    "mass": 104000.0,
    "lat": 44.9,
    "lng": -90.28333,
    "color": "yellow",
    "city": "Wisconsin",
    "effect": 9,
    "radius": 4.6
  },
  {
    "name": "Cold Bokkeveld",
    "year": 1838,
    "class": "CM2",
    "mass": 5200.0,
    "lat": -33.13333,
    "lng": 19.38333,
    "color": "yellow",
    "city": "Witzenberg Local Municipality",
    "effect": 9,
    "radius": 4.6
  },
  {
    "name": "Coleman",
    "year": 1994,
    "class": "L6",
    "mass": 469.0,
    "lat": 43.76111,
    "lng": -84.50778,
    "color": "yellow",
    "city": "Michigan",
    "effect": 1,
    "radius": 1.4
  },
  {
    "name": "Collescipoli",
    "year": 1890,
    "class": "H5",
    "mass": 5000.0,
    "lat": 42.53333,
    "lng": 12.61667,
    "color": "yellow",
    "city": "Terni",
    "effect": 6,
    "radius": 3.4
  },
  {
    "name": "Conquista",
    "year": 1965,
    "class": "H4",
    "mass": 20350.0,
    "lat": -19.85,
    "lng": -47.55,
    "color": "yellow",
    "city": "Conquista",
    "effect": 9,
    "radius": 4.6
  }
]
